<?xml version="1.0" encoding="utf-8" standalone="no"?>
<OTH00307>
  <Data>
    <Country>新竹市</Country>
    <City>香山區</City>
    <Village>香山里</Village>
    <Number>1001803012-F-00003</Number>
    <Name>台鐵新竹三姓橋火車站殘障廁</Name>
    <Address>新竹市元培街32巷30號</Address>
    <Administration>台灣鐵路局</Administration>
    <Latitude>24.78725663</Latitude>
    <Longitude>120.9284921</Longitude>
    <Grade>優等級</Grade>
    <Type>無障礙廁</Type>
    <Type2>鐵路局</Type2>
  </Data>
  <Data>
    <Country>新竹市</Country>
    <City>香山區</City>
    <Village>香山里</Village>
    <Number>1001803012-F-00002</Number>
    <Name>台鐵新竹三姓橋火車站女廁</Name>
    <Address>新竹市元培街32巷30號</Address>
    <Administration>台灣鐵路局</Administration>
    <Latitude>24.78728341</Latitude>
    <Longitude>120.9284835</Longitude>
    <Grade>優等級</Grade>
    <Type>女廁</Type>
    <Type2>鐵路局</Type2>
  </Data>
  <Data>
    <Country>新竹市</Country>
    <City>香山區</City>
    <Village>香山里</Village>
    <Number>1001803012-F-00001</Number>
    <Name>台鐵新竹三姓橋火車站男廁</Name>
    <Address>新竹市元培街32巷30號</Address>
    <Administration>台灣鐵路局</Administration>
    <Latitude>24.78728585</Latitude>
    <Longitude>120.928495</Longitude>
    <Grade>優等級</Grade>
    <Type>男廁</Type>
    <Type2>鐵路局</Type2>
  </Data>
  <Data>
    <Country>新竹市</Country>
    <City>北　區</City>
    <Village>育英里</Village>
    <Number>1001802031-X-00003</Number>
    <Name>天公壇殘障廁</Name>
    <Address>新竹市北區育英里中山路431巷36號</Address>
    <Administration>天公壇</Administration>
    <Latitude>24.80015078</Latitude>
    <Longitude>120.9588254</Longitude>
    <Grade>優等級</Grade>
    <Type>無障礙廁</Type>
    <Type2>寺廟教堂等宗教活動場所</Type2>
  </Data>
  <Data>
    <Country>新竹市</Country>
    <City>北　區</City>
    <Village>康樂里</Village>
    <Number>1001802026-W-00006</Number>
    <Name>康樂里佑聖宮旁殘障廁</Name>
    <Address>新竹市公道五路五段197號</Address>
    <Administration>康樂里辦公處</Administration>
    <Latitude>24.83462487</Latitude>
    <Longitude>120.9479966</Longitude>
    <Grade>優等級</Grade>
    <Type>親子廁</Type>
    <Type2>民眾團體活動場所</Type2>
  </Data>
  <Data>
    <Country>新竹市</Country>
    <City>北　區</City>
    <Village>康樂里</Village>
    <Number>1001802026-W-00005</Number>
    <Name>康樂里佑聖宮旁女廁</Name>
    <Address>新竹市公道五路五段197號</Address>
    <Administration>康樂里辦公處</Administration>
    <Latitude>24.83462681</Latitude>
    <Longitude>120.9480126</Longitude>
    <Grade>優等級</Grade>
    <Type>女廁</Type>
    <Type2>民眾團體活動場所</Type2>
  </Data>
  <Data>
    <Country>新竹市</Country>
    <City>北　區</City>
    <Village>康樂里</Village>
    <Number>1001802026-W-00004</Number>
    <Name>康樂里佑聖宮旁男廁</Name>
    <Address>新竹市公道五路五段197號</Address>
    <Administration>康樂里辦公處</Administration>
    <Latitude>24.83462122</Latitude>
    <Longitude>120.9479974</Longitude>
    <Grade>優等級</Grade>
    <Type>男廁</Type>
    <Type2>民眾團體活動場所</Type2>
  </Data>
  <Data>
    <Country>新竹市</Country>
    <City>北　區</City>
    <Village>康樂里</Village>
    <Number>1001802026-W-00003</Number>
    <Name>康樂里集會所旁殘障廁</Name>
    <Address>新竹市東大路三段357巷6號</Address>
    <Administration>康樂里辦公處</Administration>
    <Latitude>24.8361949</Latitude>
    <Longitude>120.9434832</Longitude>
    <Grade>優等級</Grade>
    <Type>無障礙廁</Type>
    <Type2>民眾團體活動場所</Type2>
  </Data>
  <Data>
    <Country>新竹市</Country>
    <City>北　區</City>
    <Village>康樂里</Village>
    <Number>1001802026-W-00002</Number>
    <Name>康樂里集會所旁女廁</Name>
    <Address>新竹市東大路三段357巷6號</Address>
    <Administration>康樂里辦公處</Administration>
    <Latitude>24.83620926</Latitude>
    <Longitude>120.9434001</Longitude>
    <Grade>優等級</Grade>
    <Type>女廁</Type>
    <Type2>民眾團體活動場所</Type2>
  </Data>
  <Data>
    <Country>新竹市</Country>
    <City>北　區</City>
    <Village>康樂里</Village>
    <Number>1001802026-W-00001</Number>
    <Name>康樂里集會所旁男廁</Name>
    <Address>新竹市東大路三段357巷6號</Address>
    <Administration>康樂里辦公處</Administration>
    <Latitude>24.83617883</Latitude>
    <Longitude>120.9434966</Longitude>
    <Grade>優等級</Grade>
    <Type>男廁</Type>
    <Type2>民眾團體活動場所</Type2>
  </Data>
  <Data>
    <Country>新竹市</Country>
    <City>東　區</City>
    <Village>埔頂里</Village>
    <Number>1001801041-M-00009</Number>
    <Name>好市多Costco新竹店B3停車場女廁</Name>
    <Address>新竹市慈雲路188號</Address>
    <Administration>好市多股份有限公司新竹分公司</Administration>
    <Latitude>24.79316112</Latitude>
    <Longitude>121.0131404</Longitude>
    <Grade>特優級</Grade>
    <Type>女廁</Type>
    <Type2>量販店</Type2>
  </Data>
  <Data>
    <Country>新竹市</Country>
    <City>東　區</City>
    <Village>埔頂里</Village>
    <Number>1001801041-M-00008</Number>
    <Name>好市多Costco新竹店B3停車場男廁</Name>
    <Address>新竹市慈雲路188號</Address>
    <Administration>好市多股份有限公司新竹分公司</Administration>
    <Latitude>24.79316112</Latitude>
    <Longitude>121.0131404</Longitude>
    <Grade>特優級</Grade>
    <Type>男廁</Type>
    <Type2>量販店</Type2>
  </Data>
  <Data>
    <Country>新竹市</Country>
    <City>東　區</City>
    <Village>埔頂里</Village>
    <Number>1001801041-M-00007</Number>
    <Name>好市多Costco新竹店B2停車場女廁</Name>
    <Address>新竹市慈雲路188號</Address>
    <Administration>好市多股份有限公司新竹分公司</Administration>
    <Latitude>24.79316112</Latitude>
    <Longitude>121.0131404</Longitude>
    <Grade>特優級</Grade>
    <Type>女廁</Type>
    <Type2>量販店</Type2>
  </Data>
  <Data>
    <Country>新竹市</Country>
    <City>東　區</City>
    <Village>埔頂里</Village>
    <Number>1001801041-M-00006</Number>
    <Name>好市多Costco新竹店B2停車場男廁</Name>
    <Address>新竹市慈雲路188號</Address>
    <Administration>好市多股份有限公司新竹分公司</Administration>
    <Latitude>24.79316112</Latitude>
    <Longitude>121.0131404</Longitude>
    <Grade>特優級</Grade>
    <Type>男廁</Type>
    <Type2>量販店</Type2>
  </Data>
  <Data>
    <Country>新竹市</Country>
    <City>東　區</City>
    <Village>埔頂里</Village>
    <Number>1001801041-M-00005</Number>
    <Name>好市多Costco新竹店B1停車場殘障廁</Name>
    <Address>新竹市慈雲路188號</Address>
    <Administration>好市多股份有限公司新竹分公司</Administration>
    <Latitude>24.79316112</Latitude>
    <Longitude>121.0131404</Longitude>
    <Grade>特優級</Grade>
    <Type>無障礙廁</Type>
    <Type2>量販店</Type2>
  </Data>
  <Data>
    <Country>新竹市</Country>
    <City>東　區</City>
    <Village>埔頂里</Village>
    <Number>1001801041-M-00004</Number>
    <Name>好市多Costco新竹店B1停車場女廁</Name>
    <Address>新竹市慈雲路188號</Address>
    <Administration>好市多股份有限公司新竹分公司</Administration>
    <Latitude>24.79316112</Latitude>
    <Longitude>121.0131404</Longitude>
    <Grade>特優級</Grade>
    <Type>女廁</Type>
    <Type2>量販店</Type2>
  </Data>
  <Data>
    <Country>新竹市</Country>
    <City>東　區</City>
    <Village>埔頂里</Village>
    <Number>1001801041-M-00003</Number>
    <Name>好市多Costco新竹店B1停車場男廁</Name>
    <Address>新竹市慈雲路188號</Address>
    <Administration>好市多股份有限公司新竹分公司</Administration>
    <Latitude>24.79316112</Latitude>
    <Longitude>121.0131404</Longitude>
    <Grade>特優級</Grade>
    <Type>男廁</Type>
    <Type2>量販店</Type2>
  </Data>
  <Data>
    <Country>新竹市</Country>
    <City>東　區</City>
    <Village>埔頂里</Village>
    <Number>1001801041-M-00002</Number>
    <Name>好市多Costco新竹店一樓賣場內女廁</Name>
    <Address>新竹市慈雲路188號</Address>
    <Administration>好市多股份有限公司新竹分公司</Administration>
    <Latitude>24.79316112</Latitude>
    <Longitude>121.0131404</Longitude>
    <Grade>特優級</Grade>
    <Type>女廁</Type>
    <Type2>量販店</Type2>
  </Data>
  <Data>
    <Country>新竹市</Country>
    <City>東　區</City>
    <Village>埔頂里</Village>
    <Number>1001801041-M-00001</Number>
    <Name>好市多Costco新竹店一樓賣場內男廁</Name>
    <Address>新竹市慈雲路188號</Address>
    <Administration>好市多股份有限公司新竹分公司</Administration>
    <Latitude>24.79308807</Latitude>
    <Longitude>121.0132209</Longitude>
    <Grade>特優級</Grade>
    <Type>男廁</Type>
    <Type2>量販店</Type2>
  </Data>
  <Data>
    <Country>新竹市</Country>
    <City>東　區</City>
    <Village>下竹里</Village>
    <Number>1001801008-A-00003</Number>
    <Name>新竹客運轉運站殘障廁</Name>
    <Address>新竹市東南街1巷6號</Address>
    <Administration>新竹市政府交通處</Administration>
    <Latitude>24.80089438</Latitude>
    <Longitude>120.9725533</Longitude>
    <Grade>優等級</Grade>
    <Type>無障礙廁</Type>
    <Type2>公路車站服務區及休息站</Type2>
  </Data>
  <Data>
    <Country>新竹市</Country>
    <City>東　區</City>
    <Village>下竹里</Village>
    <Number>1001801008-A-00002</Number>
    <Name>新竹客運轉運站女廁</Name>
    <Address>新竹市東南街1巷6號</Address>
    <Administration>新竹市政府交通處</Administration>
    <Latitude>24.80146486</Latitude>
    <Longitude>120.9732222</Longitude>
    <Grade>優等級</Grade>
    <Type>女廁</Type>
    <Type2>公路車站服務區及休息站</Type2>
  </Data>
  <Data>
    <Country>基隆市</Country>
    <City>仁愛區</City>
    <Village>崇文里</Village>
    <Number>1001704019-W-00002</Number>
    <Name>崇文里民活動中心女廁</Name>
    <Address>基隆市仁愛區龍安街148號</Address>
    <Administration>崇文里里辦公處</Administration>
    <Latitude>25.1242649</Latitude>
    <Longitude>121.7419842</Longitude>
    <Grade>特優級</Grade>
    <Type>女廁</Type>
    <Type2>民眾團體活動場所</Type2>
  </Data>
  <Data>
    <Country>基隆市</Country>
    <City>仁愛區</City>
    <Village>崇文里</Village>
    <Number>1001704019-W-00001</Number>
    <Name>崇文里民活動中心男廁</Name>
    <Address>基隆市仁愛區龍安街148號</Address>
    <Administration>崇文里里辦公處</Administration>
    <Latitude>25.12426612</Latitude>
    <Longitude>121.7419962</Longitude>
    <Grade>特優級</Grade>
    <Type>男廁</Type>
    <Type2>民眾團體活動場所</Type2>
  </Data>
  <Data>
    <Country>基隆市</Country>
    <City>仁愛區</City>
    <Village>德厚里</Village>
    <Number>1001704017-W-00004</Number>
    <Name>曲水里民活動中心女廁</Name>
    <Address>基隆市仁愛區龍安街198巷6號2樓</Address>
    <Administration>曲水里里辦公處</Administration>
    <Latitude>25.12300818</Latitude>
    <Longitude>121.7415805</Longitude>
    <Grade>特優級</Grade>
    <Type>女廁</Type>
    <Type2>民眾團體活動場所</Type2>
  </Data>
  <Data>
    <Country>基隆市</Country>
    <City>仁愛區</City>
    <Village>德厚里</Village>
    <Number>1001704017-W-00003</Number>
    <Name>曲水里民活動中心男廁</Name>
    <Address>基隆市仁愛區龍安街198巷6號2樓</Address>
    <Administration>曲水里里辦公處</Administration>
    <Latitude>25.12301789</Latitude>
    <Longitude>121.7415725</Longitude>
    <Grade>特優級</Grade>
    <Type>男廁</Type>
    <Type2>民眾團體活動場所</Type2>
  </Data>
  <Data>
    <Country>基隆市</Country>
    <City>仁愛區</City>
    <Village>德厚里</Village>
    <Number>1001704017-W-00002</Number>
    <Name>德厚里民活動中心女廁</Name>
    <Address>基隆市仁愛區龍安街198巷6號</Address>
    <Administration>德厚里里辦公處</Administration>
    <Latitude>25.12301592</Latitude>
    <Longitude>121.7415799</Longitude>
    <Grade>特優級</Grade>
    <Type>女廁</Type>
    <Type2>民眾團體活動場所</Type2>
  </Data>
  <Data>
    <Country>基隆市</Country>
    <City>仁愛區</City>
    <Village>德厚里</Village>
    <Number>1001704017-W-00001</Number>
    <Name>德厚里民活動中心男廁</Name>
    <Address>基隆市仁愛區龍安街198巷6號</Address>
    <Administration>德厚里里辦公處</Administration>
    <Latitude>25.12300575</Latitude>
    <Longitude>121.7415832</Longitude>
    <Grade>特優級</Grade>
    <Type>男廁</Type>
    <Type2>民眾團體活動場所</Type2>
  </Data>
  <Data>
    <Country>基隆市</Country>
    <City>仁愛區</City>
    <Village>龍門里</Village>
    <Number>1001704016-W-00002</Number>
    <Name>龍門里民活動中心女廁</Name>
    <Address>基隆市仁愛區南榮路134巷4號</Address>
    <Administration>龍門里里辦公處</Administration>
    <Latitude>25.11893124</Latitude>
    <Longitude>121.7430691</Longitude>
    <Grade>特優級</Grade>
    <Type>女廁</Type>
    <Type2>民眾團體活動場所</Type2>
  </Data>
  <Data>
    <Country>基隆市</Country>
    <City>仁愛區</City>
    <Village>龍門里</Village>
    <Number>1001704016-W-00001</Number>
    <Name>龍門里民活動中心男廁</Name>
    <Address>基隆市仁愛區南榮路134巷4號</Address>
    <Administration>龍門里里辦公處</Administration>
    <Latitude>25.11892517</Latitude>
    <Longitude>121.7430664</Longitude>
    <Grade>特優級</Grade>
    <Type>男廁</Type>
    <Type2>民眾團體活動場所</Type2>
  </Data>
  <Data>
    <Country>基隆市</Country>
    <City>中正區</City>
    <Village>碧砂里</Village>
    <Number>1001701020-B-00023</Number>
    <Name>碧砂漁港大型停車場(女廁旁)殘障廁所</Name>
    <Address>基隆市北寧路211號</Address>
    <Administration>基隆區漁會</Administration>
    <Latitude>25.14474073</Latitude>
    <Longitude>121.7864084</Longitude>
    <Grade>特優級</Grade>
    <Type>無障礙廁</Type>
    <Type2>觀光地區及風景區</Type2>
  </Data>
  <Data>
    <Country>基隆市</Country>
    <City>中正區</City>
    <Village>碧砂里</Village>
    <Number>1001701020-B-00022</Number>
    <Name>碧砂漁港大型停車場(男廁旁)殘障廁所</Name>
    <Address>基隆市北寧路211號</Address>
    <Administration>基隆區漁會</Administration>
    <Latitude>25.14474073</Latitude>
    <Longitude>121.7864084</Longitude>
    <Grade>特優級</Grade>
    <Type>無障礙廁</Type>
    <Type2>觀光地區及風景區</Type2>
  </Data>
  <Data>
    <Country>澎湖縣</Country>
    <City>白沙鄉</City>
    <Village>吉貝村</Village>
    <Number>1001603012-B-00077</Number>
    <Name>吉貝海上樂園女廁</Name>
    <Address>澎湖縣白沙鄉吉貝村</Address>
    <Administration>澎湖國家風景區管理處北海管理站</Administration>
    <Latitude>23.73346093</Latitude>
    <Longitude>119.6033156</Longitude>
    <Grade>優等級</Grade>
    <Type>女廁</Type>
    <Type2>觀光地區及風景區</Type2>
  </Data>
  <Data>
    <Country>澎湖縣</Country>
    <City>白沙鄉</City>
    <Village>吉貝村</Village>
    <Number>1001603012-B-00076</Number>
    <Name>吉貝社區女廁</Name>
    <Address>澎湖縣白沙鄉吉貝村</Address>
    <Administration>澎湖國家風景區管理處北海管理站</Administration>
    <Latitude>23.74145659</Latitude>
    <Longitude>119.6127945</Longitude>
    <Grade>優等級</Grade>
    <Type>女廁</Type>
    <Type2>觀光地區及風景區</Type2>
  </Data>
  <Data>
    <Country>澎湖縣</Country>
    <City>白沙鄉</City>
    <Village>吉貝村</Village>
    <Number>1001603012-B-00075</Number>
    <Name>吉貝社區男廁</Name>
    <Address>澎湖縣白沙鄉吉貝村</Address>
    <Administration>澎湖國家風景區管理處北海管理站</Administration>
    <Latitude>23.74144432</Latitude>
    <Longitude>119.6127972</Longitude>
    <Grade>優等級</Grade>
    <Type>男廁</Type>
    <Type2>觀光地區及風景區</Type2>
  </Data>
  <Data>
    <Country>澎湖縣</Country>
    <City>白沙鄉</City>
    <Village>吉貝村</Village>
    <Number>1001603012-B-00074</Number>
    <Name>吉貝沙尾女廁</Name>
    <Address>澎湖縣白沙鄉吉貝村</Address>
    <Administration>澎湖國家風景區管理處北海管理站</Administration>
    <Latitude>23.73330379</Latitude>
    <Longitude>119.6028864</Longitude>
    <Grade>優等級</Grade>
    <Type>女廁</Type>
    <Type2>觀光地區及風景區</Type2>
  </Data>
  <Data>
    <Country>澎湖縣</Country>
    <City>白沙鄉</City>
    <Village>吉貝村</Village>
    <Number>1001603012-B-00073</Number>
    <Name>吉貝沙尾男廁</Name>
    <Address>澎湖縣白沙鄉吉貝村</Address>
    <Administration>澎湖國家風景區管理處北海管理站</Administration>
    <Latitude>23.73333325</Latitude>
    <Longitude>119.6028972</Longitude>
    <Grade>優等級</Grade>
    <Type>男廁</Type>
    <Type2>觀光地區及風景區</Type2>
  </Data>
  <Data>
    <Country>澎湖縣</Country>
    <City>馬公市</City>
    <Village>桶盤里</Village>
    <Number>1001601034-J-00003</Number>
    <Name>桶盤公廁殘廁</Name>
    <Address>澎湖縣馬公市桶盤里</Address>
    <Administration>澎湖國家風景區管理處管理課</Administration>
    <Latitude>23.52507726</Latitude>
    <Longitude>119.4573498</Longitude>
    <Grade>優等級</Grade>
    <Type>無障礙廁</Type>
    <Type2>港區</Type2>
  </Data>
  <Data>
    <Country>澎湖縣</Country>
    <City>馬公市</City>
    <Village>桶盤里</Village>
    <Number>1001601034-J-00002</Number>
    <Name>桶盤公廁女廁</Name>
    <Address>澎湖縣馬公市桶盤里</Address>
    <Administration>澎湖國家風景區管理處管理課</Administration>
    <Latitude>23.51233389</Latitude>
    <Longitude>119.5176485</Longitude>
    <Grade>優等級</Grade>
    <Type>女廁</Type>
    <Type2>港區</Type2>
  </Data>
  <Data>
    <Country>澎湖縣</Country>
    <City>馬公市</City>
    <Village>桶盤里</Village>
    <Number>1001601034-J-00001</Number>
    <Name>桶盤公廁男廁</Name>
    <Address>澎湖縣馬公市桶盤里</Address>
    <Administration>澎湖國家風景區管理處管理課</Administration>
    <Latitude>23.51233266</Latitude>
    <Longitude>119.5176566</Longitude>
    <Grade>優等級</Grade>
    <Type>男廁</Type>
    <Type2>港區</Type2>
  </Data>
  <Data>
    <Country>澎湖縣</Country>
    <City>馬公市</City>
    <Village>虎井里</Village>
    <Number>1001601033-B-00006</Number>
    <Name>虎井西山無障礙廁所</Name>
    <Address>澎湖縣馬公市虎井里</Address>
    <Administration>澎湖國家風景區管理處管理課</Administration>
    <Latitude>23.48716449</Latitude>
    <Longitude>119.5110798</Longitude>
    <Grade>優等級</Grade>
    <Type>無障礙廁</Type>
    <Type2>觀光地區及風景區</Type2>
  </Data>
  <Data>
    <Country>澎湖縣</Country>
    <City>馬公市</City>
    <Village>虎井里</Village>
    <Number>1001601033-B-00005</Number>
    <Name>虎井西山女廁</Name>
    <Address>澎湖縣馬公市虎井里</Address>
    <Administration>澎湖國家風景區管理處管理課</Administration>
    <Latitude>23.48724321</Latitude>
    <Longitude>119.5110691</Longitude>
    <Grade>優等級</Grade>
    <Type>女廁</Type>
    <Type2>觀光地區及風景區</Type2>
  </Data>
  <Data>
    <Country>澎湖縣</Country>
    <City>馬公市</City>
    <Village>虎井里</Village>
    <Number>1001601033-B-00004</Number>
    <Name>虎井西山男廁</Name>
    <Address>澎湖縣馬公市虎井里</Address>
    <Administration>澎湖國家風景區管理處管理課</Administration>
    <Latitude>23.48713005</Latitude>
    <Longitude>119.5111227</Longitude>
    <Grade>優等級</Grade>
    <Type>男廁</Type>
    <Type2>觀光地區及風景區</Type2>
  </Data>
  <Data>
    <Country>花蓮縣</Country>
    <City>豐濱鄉</City>
    <Village>靜浦村</Village>
    <Number>1001508005-B-00022</Number>
    <Name>奚卜蘭遊客中心女廁</Name>
    <Address>花蓮縣豐濱鄉靜浦村靜浦八之一號</Address>
    <Administration>東管處</Administration>
    <Latitude>23.46489973</Latitude>
    <Longitude>121.4889622</Longitude>
    <Grade>優等級</Grade>
    <Type>女廁</Type>
    <Type2>觀光地區及風景區</Type2>
  </Data>
  <Data>
    <Country>花蓮縣</Country>
    <City>豐濱鄉</City>
    <Village>靜浦村</Village>
    <Number>1001508005-B-00021</Number>
    <Name>奚卜蘭遊客中心男廁</Name>
    <Address>花蓮縣豐濱鄉靜浦村靜浦八之一號</Address>
    <Administration>東管處</Administration>
    <Latitude>23.46450607</Latitude>
    <Longitude>121.4892197</Longitude>
    <Grade>優等級</Grade>
    <Type>男廁</Type>
    <Type2>觀光地區及風景區</Type2>
  </Data>
  <Data>
    <Country>花蓮縣</Country>
    <City>花蓮市</City>
    <Village>主計里</Village>
    <Number>1001501036-Z-00002</Number>
    <Name>花蓮市市立殯儀館-女廁</Name>
    <Address>花蓮縣花蓮市主計里博愛街一○之三號</Address>
    <Administration>花蓮市公所清潔隊</Administration>
    <Latitude>23.96961691</Latitude>
    <Longitude>121.6117549</Longitude>
    <Grade>優等級</Grade>
    <Type>女廁</Type>
    <Type2>公營事業機構設置供民眾使用者及其他</Type2>
  </Data>
  <Data>
    <Country>花蓮縣</Country>
    <City>花蓮市</City>
    <Village>主計里</Village>
    <Number>1001501036-Z-00001</Number>
    <Name>花蓮市市立殯儀館-男廁</Name>
    <Address>花蓮縣花蓮市主計里博愛街一○之三號</Address>
    <Administration>花蓮市公所清潔隊</Administration>
    <Latitude>23.969509</Latitude>
    <Longitude>121.6117454</Longitude>
    <Grade>優等級</Grade>
    <Type>男廁</Type>
    <Type2>公營事業機構設置供民眾使用者及其他</Type2>
  </Data>
  <Data>
    <Country>花蓮縣</Country>
    <City>花蓮市</City>
    <Village>民權里</Village>
    <Number>1001501035-D-00156</Number>
    <Name>烏克麗麗公園-女廁</Name>
    <Address>花蓮縣花蓮市民權里北濱街一一一之一號</Address>
    <Administration>花蓮市公所清潔隊</Administration>
    <Latitude>23.97769732</Latitude>
    <Longitude>121.6156405</Longitude>
    <Grade>優等級</Grade>
    <Type>女廁</Type>
    <Type2>公園</Type2>
  </Data>
  <Data>
    <Country>花蓮縣</Country>
    <City>花蓮市</City>
    <Village>民權里</Village>
    <Number>1001501035-D-00155</Number>
    <Name>烏克麗麗公園-男廁</Name>
    <Address>花蓮縣花蓮市民權里北濱街一一一之一號</Address>
    <Administration>花蓮市公所清潔隊</Administration>
    <Latitude>23.97760659</Latitude>
    <Longitude>121.6155529</Longitude>
    <Grade>優等級</Grade>
    <Type>男廁</Type>
    <Type2>公園</Type2>
  </Data>
  <Data>
    <Country>花蓮縣</Country>
    <City>花蓮市</City>
    <Village>民生里</Village>
    <Number>1001501019-B-00001</Number>
    <Name>將軍府公廁</Name>
    <Address>花蓮縣花蓮市民生里中正路六二二巷六號</Address>
    <Administration>民生社區發展協會</Administration>
    <Latitude>23.98033186</Latitude>
    <Longitude>121.6131485</Longitude>
    <Grade>優等級</Grade>
    <Type>混合廁</Type>
    <Type2>觀光地區及風景區</Type2>
  </Data>
  <Data>
    <Country>臺東縣</Country>
    <City>長濱鄉</City>
    <Village>三間村</Village>
    <Number>1001408002-B-00039</Number>
    <Name>東管處都歷旅客中心(遊樂區)-女廁(待刪除)</Name>
    <Address>台東縣成功鎮信義里新村路26號</Address>
    <Administration>交通部觀光局東海岸國家風景區管理處</Administration>
    <Latitude>23.02057711</Latitude>
    <Longitude>121.3257551</Longitude>
    <Grade>優等級</Grade>
    <Type>女廁</Type>
    <Type2>觀光地區及風景區</Type2>
  </Data>
  <Data>
    <Country>臺東縣</Country>
    <City>長濱鄉</City>
    <Village>三間村</Village>
    <Number>1001408002-B-00038</Number>
    <Name>東管處八仙洞展示館-親子廁所</Name>
    <Address>台東縣長濱鄉三間村水母丁1~4號</Address>
    <Administration>交通部觀光局東海岸國家風景區管理處</Administration>
    <Latitude>23.39572712</Latitude>
    <Longitude>121.4763853</Longitude>
    <Grade>特優級</Grade>
    <Type>親子廁</Type>
    <Type2>觀光地區及風景區</Type2>
  </Data>
  <Data>
    <Country>臺東縣</Country>
    <City>長濱鄉</City>
    <Village>三間村</Village>
    <Number>1001408002-B-00037</Number>
    <Name>東管處八仙洞展示館-女廁</Name>
    <Address>台東縣長濱鄉三間村水母丁1~4號</Address>
    <Administration>交通部觀光局東海岸國家風景區管理處</Administration>
    <Latitude>23.39570989</Latitude>
    <Longitude>121.4764524</Longitude>
    <Grade>特優級</Grade>
    <Type>女廁</Type>
    <Type2>觀光地區及風景區</Type2>
  </Data>
  <Data>
    <Country>臺東縣</Country>
    <City>長濱鄉</City>
    <Village>三間村</Village>
    <Number>1001408002-B-00036</Number>
    <Name>東管處八仙洞北側廣場-親子廁所</Name>
    <Address>台東縣長濱鄉三間村水母丁1~4號</Address>
    <Administration>交通部觀光局東海岸國家風景區管理處</Administration>
    <Latitude>23.39762261</Latitude>
    <Longitude>121.4775306</Longitude>
    <Grade>特優級</Grade>
    <Type>親子廁</Type>
    <Type2>觀光地區及風景區</Type2>
  </Data>
  <Data>
    <Country>臺東縣</Country>
    <City>長濱鄉</City>
    <Village>三間村</Village>
    <Number>1001408002-B-00035</Number>
    <Name>東管處八仙洞北側廣場-女廁</Name>
    <Address>台東縣長濱鄉三間村水母丁1~4號</Address>
    <Administration>交通部觀光局東海岸國家風景區管理處</Administration>
    <Latitude>23.39764969</Latitude>
    <Longitude>121.477544</Longitude>
    <Grade>特優級</Grade>
    <Type>女廁</Type>
    <Type2>觀光地區及風景區</Type2>
  </Data>
  <Data>
    <Country>臺東縣</Country>
    <City>長濱鄉</City>
    <Village>三間村</Village>
    <Number>1001408002-B-00034</Number>
    <Name>東管處八仙洞小型停車場-親子廁所</Name>
    <Address>台東縣長濱鄉三間村水母丁1~4號</Address>
    <Administration>交通部觀光局東海岸國家風景區管理處</Administration>
    <Latitude>23.39425256</Latitude>
    <Longitude>121.4757335</Longitude>
    <Grade>特優級</Grade>
    <Type>親子廁</Type>
    <Type2>觀光地區及風景區</Type2>
  </Data>
  <Data>
    <Country>臺東縣</Country>
    <City>長濱鄉</City>
    <Village>三間村</Village>
    <Number>1001408002-B-00033</Number>
    <Name>東管處八仙洞小型停車場-女廁</Name>
    <Address>台東縣長濱鄉三間村水母丁1~4號</Address>
    <Administration>交通部觀光局東海岸國家風景區管理處</Administration>
    <Latitude>23.39439534</Latitude>
    <Longitude>121.4757979</Longitude>
    <Grade>特優級</Grade>
    <Type>女廁</Type>
    <Type2>觀光地區及風景區</Type2>
  </Data>
  <Data>
    <Country>臺東縣</Country>
    <City>長濱鄉</City>
    <Village>三間村</Village>
    <Number>1001408002-B-00032</Number>
    <Name>東管處八仙洞大型停車場-親子廁所</Name>
    <Address>台東縣長濱鄉三間村水母丁1~4號</Address>
    <Administration>交通部觀光局東海岸國家風景區管理處</Administration>
    <Latitude>23.39397685</Latitude>
    <Longitude>121.4752936</Longitude>
    <Grade>特優級</Grade>
    <Type>親子廁</Type>
    <Type2>觀光地區及風景區</Type2>
  </Data>
  <Data>
    <Country>臺東縣</Country>
    <City>長濱鄉</City>
    <Village>三間村</Village>
    <Number>1001408002-B-00031</Number>
    <Name>東管處八仙洞大型停車場-女廁</Name>
    <Address>台東縣長濱鄉三間村水母丁1~4號</Address>
    <Administration>交通部觀光局東海岸國家風景區管理處</Administration>
    <Latitude>23.39395223</Latitude>
    <Longitude>121.4752883</Longitude>
    <Grade>特優級</Grade>
    <Type>女廁</Type>
    <Type2>觀光地區及風景區</Type2>
  </Data>
  <Data>
    <Country>臺東縣</Country>
    <City>東河鄉</City>
    <Village>都蘭村</Village>
    <Number>1001407007-B-00031</Number>
    <Name>東部水往上流部落市集-親子廁所</Name>
    <Address>臺東縣東河鄉都蘭村，台11 線約148公里處</Address>
    <Administration>交通部觀光局東海岸國家風景區管理處</Administration>
    <Latitude>22.86862039</Latitude>
    <Longitude>121.2195531</Longitude>
    <Grade>特優級</Grade>
    <Type>親子廁</Type>
    <Type2>觀光地區及風景區</Type2>
  </Data>
  <Data>
    <Country>臺東縣</Country>
    <City>東河鄉</City>
    <Village>都蘭村</Village>
    <Number>1001407007-B-00030</Number>
    <Name>東部水往上流部落市集-女廁</Name>
    <Address>臺東縣東河鄉都蘭村，台11 線約148公里處</Address>
    <Administration>交通部觀光局東海岸國家風景區管理處</Administration>
    <Latitude>22.86860803</Latitude>
    <Longitude>121.2195021</Longitude>
    <Grade>特優級</Grade>
    <Type>女廁</Type>
    <Type2>觀光地區及風景區</Type2>
  </Data>
  <Data>
    <Country>臺東縣</Country>
    <City>東河鄉</City>
    <Village>都蘭村</Village>
    <Number>1001407007-B-00029</Number>
    <Name>東部水往上流部落市集-男廁</Name>
    <Address>臺東縣東河鄉都蘭村，台11 線約148公里處</Address>
    <Administration>交通部觀光局東海岸國家風景區管理處</Administration>
    <Latitude>22.86868217</Latitude>
    <Longitude>121.2194699</Longitude>
    <Grade>優等級</Grade>
    <Type>男廁</Type>
    <Type2>觀光地區及風景區</Type2>
  </Data>
  <Data>
    <Country>臺東縣</Country>
    <City>東河鄉</City>
    <Village>東河村</Village>
    <Number>1001407003-B-00029</Number>
    <Name>東管處泰源幽谷(舊東河橋)-親子廁所</Name>
    <Address></Address>
    <Administration>交通部觀光局東海岸國家風景區管理處</Administration>
    <Latitude>22.97684107</Latitude>
    <Longitude>121.3048553</Longitude>
    <Grade>特優級</Grade>
    <Type>親子廁</Type>
    <Type2>觀光地區及風景區</Type2>
  </Data>
  <Data>
    <Country>臺東縣</Country>
    <City>東河鄉</City>
    <Village>東河村</Village>
    <Number>1001407003-B-00028</Number>
    <Name>東管處泰源幽谷(舊東河橋)-女廁</Name>
    <Address>臺東縣東河鄉台11線131公里路旁</Address>
    <Administration>交通部觀光局東海岸國家風景區管理處</Administration>
    <Latitude>22.97682625</Latitude>
    <Longitude>121.3048929</Longitude>
    <Grade>特優級</Grade>
    <Type>女廁</Type>
    <Type2>觀光地區及風景區</Type2>
  </Data>
  <Data>
    <Country>臺東縣</Country>
    <City>東河鄉</City>
    <Village>東河村</Village>
    <Number>1001407003-B-00027</Number>
    <Name>東管處金樽遊憩區-親子廁所</Name>
    <Address>台東縣東河鄉七里橋11號</Address>
    <Administration>交通部觀光局東海岸國家風景區管理處</Administration>
    <Latitude>22.94606378</Latitude>
    <Longitude>121.2801039</Longitude>
    <Grade>優等級</Grade>
    <Type>親子廁</Type>
    <Type2>觀光地區及風景區</Type2>
  </Data>
  <Data>
    <Country>臺東縣</Country>
    <City>成功鎮</City>
    <Village>信義里</Village>
    <Number>1001402008-B-00026</Number>
    <Name>東管處-阿美族民俗中心-無障礙廁所</Name>
    <Address>台東縣成功鎮新村路25號</Address>
    <Administration>交通部觀光局東海岸國家風景區管理處</Administration>
    <Latitude>23.01832572</Latitude>
    <Longitude>121.3247895</Longitude>
    <Grade>特優級</Grade>
    <Type>無障礙廁</Type>
    <Type2>觀光地區及風景區</Type2>
  </Data>
  <Data>
    <Country>臺東縣</Country>
    <City>成功鎮</City>
    <Village>信義里</Village>
    <Number>1001402008-B-00025</Number>
    <Name>東管處-阿美族民俗中心-女廁</Name>
    <Address>台東縣成功鎮新村路25號</Address>
    <Administration>交通部觀光局東海岸國家風景區管理處</Administration>
    <Latitude>23.01843434</Latitude>
    <Longitude>121.3243389</Longitude>
    <Grade>特優級</Grade>
    <Type>女廁</Type>
    <Type2>觀光地區及風景區</Type2>
  </Data>
  <Data>
    <Country>臺東縣</Country>
    <City>成功鎮</City>
    <Village>信義里</Village>
    <Number>1001402008-B-00024</Number>
    <Name>東管處都歷旅客中心(遊樂區)-女廁</Name>
    <Address>台東縣成功鎮信義里新村路26號</Address>
    <Administration>交通部觀光局東海岸國家風景區管理處</Administration>
    <Latitude>23.02045862</Latitude>
    <Longitude>121.3254547</Longitude>
    <Grade>優等級</Grade>
    <Type>女廁</Type>
    <Type2>觀光地區及風景區</Type2>
  </Data>
  <Data>
    <Country>臺東縣</Country>
    <City>成功鎮</City>
    <Village>信義里</Village>
    <Number>1001402008-B-00023</Number>
    <Name>東管處都歷旅客中心(停車場)-親子廁所</Name>
    <Address>台東縣成功鎮信義里新村路25號</Address>
    <Administration>交通部觀光局東海岸國家風景區管理處</Administration>
    <Latitude>23.02010314</Latitude>
    <Longitude>121.3249397</Longitude>
    <Grade>特優級</Grade>
    <Type>親子廁</Type>
    <Type2>觀光地區及風景區</Type2>
  </Data>
  <Data>
    <Country>臺東縣</Country>
    <City>成功鎮</City>
    <Village>信義里</Village>
    <Number>1001402008-B-00022</Number>
    <Name>東管處都歷旅客中心(停車場)-女廁</Name>
    <Address>台東縣成功鎮信義里新村路25號</Address>
    <Administration>交通部觀光局東海岸國家風景區管理處</Administration>
    <Latitude>23.01875033</Latitude>
    <Longitude>121.3240546</Longitude>
    <Grade>特優級</Grade>
    <Type>女廁</Type>
    <Type2>觀光地區及風景區</Type2>
  </Data>
  <Data>
    <Country>臺東縣</Country>
    <City>成功鎮</City>
    <Village>信義里</Village>
    <Number>1001402008-B-00021</Number>
    <Name>東管處都歷旅客中心(地下室)-親子廁所</Name>
    <Address>台東縣成功鎮信義里新村路25號</Address>
    <Administration>交通部觀光局東海岸國家風景區管理處</Administration>
    <Latitude>23.02039937</Latitude>
    <Longitude>121.325047</Longitude>
    <Grade>特優級</Grade>
    <Type>親子廁</Type>
    <Type2>觀光地區及風景區</Type2>
  </Data>
  <Data>
    <Country>臺東縣</Country>
    <City>成功鎮</City>
    <Village>信義里</Village>
    <Number>1001402008-B-00020</Number>
    <Name>東管處都歷旅客中心(地下室)-女廁</Name>
    <Address>台東縣成功鎮信義里新村路25號</Address>
    <Administration>交通部觀光局東海岸國家風景區管理處</Administration>
    <Latitude>23.0203895</Latitude>
    <Longitude>121.3248646</Longitude>
    <Grade>特優級</Grade>
    <Type>女廁</Type>
    <Type2>觀光地區及風景區</Type2>
  </Data>
  <Data>
    <Country>臺東縣</Country>
    <City>成功鎮</City>
    <Village>信義里</Village>
    <Number>1001402008-B-00019</Number>
    <Name>東管處都歷旅客中心一樓-親子廁所</Name>
    <Address>台東縣成功鎮信義里新村路25號</Address>
    <Administration>交通部觀光局東海岸國家風景區管理處</Administration>
    <Latitude>23.02051786</Latitude>
    <Longitude>121.3251543</Longitude>
    <Grade>特優級</Grade>
    <Type>親子廁</Type>
    <Type2>觀光地區及風景區</Type2>
  </Data>
  <Data>
    <Country>臺東縣</Country>
    <City>成功鎮</City>
    <Village>信義里</Village>
    <Number>1001402008-B-00018</Number>
    <Name>東管處都歷旅客中心一樓-女廁</Name>
    <Address>台東縣成功鎮信義里新村路25號</Address>
    <Administration>交通部觀光局東海岸國家風景區管理處</Administration>
    <Latitude>23.02032037</Latitude>
    <Longitude>121.3248754</Longitude>
    <Grade>特優級</Grade>
    <Type>女廁</Type>
    <Type2>觀光地區及風景區</Type2>
  </Data>
  <Data>
    <Country>臺東縣</Country>
    <City>成功鎮</City>
    <Village>忠仁里</Village>
    <Number>1001402006-D-00006</Number>
    <Name>成功海濱公園公廁-女廁</Name>
    <Address>台東縣成功鎮中山東路75號</Address>
    <Administration>交通部觀光局東海岸國家風景區管理處</Administration>
    <Latitude>23.10393354</Latitude>
    <Longitude>121.3848951</Longitude>
    <Grade>優等級</Grade>
    <Type>女廁</Type>
    <Type2>公園</Type2>
  </Data>
  <Data>
    <Country>臺東縣</Country>
    <City>成功鎮</City>
    <Village>三仙里</Village>
    <Number>1001402003-B-00017</Number>
    <Name>東管處三仙台-賣場旁-親子廁所</Name>
    <Address>台東縣成功鎮三仙里基翬路74號</Address>
    <Administration>交通部觀光局東海岸國家風景區管理處</Administration>
    <Latitude>23.12260065</Latitude>
    <Longitude>121.4082357</Longitude>
    <Grade>特優級</Grade>
    <Type>親子廁</Type>
    <Type2>觀光地區及風景區</Type2>
  </Data>
  <Data>
    <Country>臺東縣</Country>
    <City>成功鎮</City>
    <Village>三仙里</Village>
    <Number>1001402003-B-00016</Number>
    <Name>東管處三仙台-賣場旁-無障礙廁所</Name>
    <Address>台東縣成功鎮三仙里基翬路74號</Address>
    <Administration>交通部觀光局東海岸國家風景區管理處</Administration>
    <Latitude>23.12303479</Latitude>
    <Longitude>121.4078522</Longitude>
    <Grade>特優級</Grade>
    <Type>無障礙廁</Type>
    <Type2>觀光地區及風景區</Type2>
  </Data>
  <Data>
    <Country>臺東縣</Country>
    <City>成功鎮</City>
    <Village>三仙里</Village>
    <Number>1001402003-B-00015</Number>
    <Name>東管處三仙台-賣場旁-女廁</Name>
    <Address>台東縣成功鎮三仙里基翬路74號</Address>
    <Administration>交通部觀光局東海岸國家風景區管理處</Administration>
    <Latitude>23.12263272</Latitude>
    <Longitude>121.4082921</Longitude>
    <Grade>特優級</Grade>
    <Type>女廁</Type>
    <Type2>觀光地區及風景區</Type2>
  </Data>
  <Data>
    <Country>臺東縣</Country>
    <City>成功鎮</City>
    <Village>三仙里</Village>
    <Number>1001402003-B-00014</Number>
    <Name>東管處三仙台-停車場-無障礙廁所</Name>
    <Address>台東縣成功鎮三仙里基翬路74號</Address>
    <Administration>交通部觀光局東海岸國家風景區管理處</Administration>
    <Latitude>23.12294106</Latitude>
    <Longitude>121.4082545</Longitude>
    <Grade>特優級</Grade>
    <Type>無障礙廁</Type>
    <Type2>觀光地區及風景區</Type2>
  </Data>
  <Data>
    <Country>臺東縣</Country>
    <City>成功鎮</City>
    <Village>三仙里</Village>
    <Number>1001402003-B-00013</Number>
    <Name>東管處三仙台-停車場-女廁</Name>
    <Address>台東縣成功鎮三仙里基翬路75號</Address>
    <Administration>交通部觀光局東海岸國家風景區管理處</Administration>
    <Latitude>23.12250198</Latitude>
    <Longitude>121.4082599</Longitude>
    <Grade>特優級</Grade>
    <Type>女廁</Type>
    <Type2>觀光地區及風景區</Type2>
  </Data>
  <Data>
    <Country>臺東縣</Country>
    <City>成功鎮</City>
    <Village>忠孝里</Village>
    <Number>1001402002-B-00010</Number>
    <Name>東管處石雨傘-女廁</Name>
    <Address>089-850785</Address>
    <Administration>交通部觀光局東海岸國家風景區管理處</Administration>
    <Latitude>23.17221237</Latitude>
    <Longitude>121.4019996</Longitude>
    <Grade>特優級</Grade>
    <Type>女廁</Type>
    <Type2>觀光地區及風景區</Type2>
  </Data>
  <Data>
    <Country>臺東縣</Country>
    <City>臺東市</City>
    <Village>豐里里</Village>
    <Number>1001401040-C-00013</Number>
    <Name>台糖中興二加油站-無障礙</Name>
    <Address>臺東縣臺東市豐里里臨海路一段四三一號</Address>
    <Administration>台糖中興二加油站</Administration>
    <Latitude>22.72764647</Latitude>
    <Longitude>121.1189729</Longitude>
    <Grade>特優級</Grade>
    <Type>無障礙廁</Type>
    <Type2>加油站</Type2>
  </Data>
  <Data>
    <Country>臺東縣</Country>
    <City>臺東市</City>
    <Village>豐里里</Village>
    <Number>1001401040-C-00012</Number>
    <Name>台糖中興二加油站-女廁</Name>
    <Address>臺東縣臺東市豐里里臨海路一段四三一號</Address>
    <Administration>台糖中興二加油站-男廁</Administration>
    <Latitude>22.72766873</Latitude>
    <Longitude>121.1189461</Longitude>
    <Grade>特優級</Grade>
    <Type>女廁</Type>
    <Type2>加油站</Type2>
  </Data>
  <Data>
    <Country>臺東縣</Country>
    <City>臺東市</City>
    <Village>東海里</Village>
    <Number>1001401036-S-00017</Number>
    <Name>恩典樓2樓-親子廁所</Name>
    <Address>台東縣台東市長沙街303巷1號</Address>
    <Administration>臺東馬偕紀念醫院</Administration>
    <Latitude>22.7506967</Latitude>
    <Longitude>121.1408544</Longitude>
    <Grade>特優級</Grade>
    <Type>親子廁</Type>
    <Type2>醫院</Type2>
  </Data>
  <Data>
    <Country>臺東縣</Country>
    <City>臺東市</City>
    <Village>東海里</Village>
    <Number>1001401036-S-00016</Number>
    <Name>恩典樓2樓-無障礙廁所</Name>
    <Address>台東縣台東市長沙街303巷1號</Address>
    <Administration>臺東馬偕紀念醫院</Administration>
    <Latitude>22.75062744</Latitude>
    <Longitude>121.1408973</Longitude>
    <Grade>特優級</Grade>
    <Type>無障礙廁</Type>
    <Type2>醫院</Type2>
  </Data>
  <Data>
    <Country>臺東縣</Country>
    <City>臺東市</City>
    <Village>東海里</Village>
    <Number>1001401036-S-00015</Number>
    <Name>恩典樓2樓-女廁</Name>
    <Address>台東縣台東市長沙街303巷1號</Address>
    <Administration>臺東馬偕紀念醫院</Administration>
    <Latitude>22.75041967</Latitude>
    <Longitude>121.1407471</Longitude>
    <Grade>特優級</Grade>
    <Type>無障礙廁</Type>
    <Type2>醫院</Type2>
  </Data>
  <Data>
    <Country>臺東縣</Country>
    <City>臺東市</City>
    <Village>東海里</Village>
    <Number>1001401036-S-00014</Number>
    <Name>恩典樓2樓-男廁</Name>
    <Address>台東縣台東市長沙街303巷1號</Address>
    <Administration>臺東馬偕紀念醫院</Administration>
    <Latitude>22.75063734</Latitude>
    <Longitude>121.1408865</Longitude>
    <Grade>特優級</Grade>
    <Type>男廁</Type>
    <Type2>醫院</Type2>
  </Data>
  <Data>
    <Country>臺東縣</Country>
    <City>臺東市</City>
    <Village>東海里</Village>
    <Number>1001401036-S-00013</Number>
    <Name>恩典樓1樓門診區-無障礙廁所</Name>
    <Address>台東縣台東市長沙街303巷1號</Address>
    <Administration>臺東馬偕紀念醫院</Administration>
    <Latitude>22.75077585</Latitude>
    <Longitude>121.1407685</Longitude>
    <Grade>特優級</Grade>
    <Type>無障礙廁</Type>
    <Type2>醫院</Type2>
  </Data>
  <Data>
    <Country>臺東縣</Country>
    <City>臺東市</City>
    <Village>東海里</Village>
    <Number>1001401036-S-00012</Number>
    <Name>恩典樓1樓門診區-親子廁所</Name>
    <Address>台東縣台東市長沙街303巷1號</Address>
    <Administration>臺東馬偕紀念醫院</Administration>
    <Latitude>22.75062744</Latitude>
    <Longitude>121.1408758</Longitude>
    <Grade>特優級</Grade>
    <Type>親子廁</Type>
    <Type2>醫院</Type2>
  </Data>
  <Data>
    <Country>臺東縣</Country>
    <City>臺東市</City>
    <Village>東海里</Village>
    <Number>1001401036-S-00011</Number>
    <Name>恩典樓1樓門診區-女廁</Name>
    <Address>台東縣台東市長沙街303巷1號</Address>
    <Administration>臺東馬偕紀念醫院</Administration>
    <Latitude>22.75065712</Latitude>
    <Longitude>121.1408329</Longitude>
    <Grade>特優級</Grade>
    <Type>女廁</Type>
    <Type2>醫院</Type2>
  </Data>
  <Data>
    <Country>臺東縣</Country>
    <City>臺東市</City>
    <Village>東海里</Village>
    <Number>1001401036-S-00010</Number>
    <Name>恩典樓1樓門診區-男廁</Name>
    <Address>台東縣台東市長沙街303巷1號</Address>
    <Administration>臺東馬偕紀念醫院</Administration>
    <Latitude>22.75061755</Latitude>
    <Longitude>121.1409616</Longitude>
    <Grade>特優級</Grade>
    <Type>男廁</Type>
    <Type2>醫院</Type2>
  </Data>
  <Data>
    <Country>臺東縣</Country>
    <City>臺東市</City>
    <Village>東海里</Village>
    <Number>1001401036-S-00009</Number>
    <Name>平安樓2樓-無障礙</Name>
    <Address>台東縣台東市長沙街303巷1號</Address>
    <Administration>臺東馬偕紀念醫院</Administration>
    <Latitude>22.75053839</Latitude>
    <Longitude>121.1410904</Longitude>
    <Grade>特優級</Grade>
    <Type>無障礙廁</Type>
    <Type2>醫院</Type2>
  </Data>
  <Data>
    <Country>臺東縣</Country>
    <City>臺東市</City>
    <Village>東海里</Village>
    <Number>1001401036-S-00008</Number>
    <Name>平安樓2樓-女廁</Name>
    <Address>台東縣台東市長沙街303巷1號</Address>
    <Administration>臺東馬偕紀念醫院</Administration>
    <Latitude>22.75066702</Latitude>
    <Longitude>121.1409402</Longitude>
    <Grade>特優級</Grade>
    <Type>女廁</Type>
    <Type2>醫院</Type2>
  </Data>
  <Data>
    <Country>臺東縣</Country>
    <City>臺東市</City>
    <Village>東海里</Village>
    <Number>1001401036-S-00007</Number>
    <Name>平安樓2樓-男廁</Name>
    <Address>台東縣台東市長沙街303巷1號</Address>
    <Administration>臺東馬偕紀念醫院</Administration>
    <Latitude>22.75060765</Latitude>
    <Longitude>121.1408973</Longitude>
    <Grade>特優級</Grade>
    <Type>男廁</Type>
    <Type2>醫院</Type2>
  </Data>
  <Data>
    <Country>臺東縣</Country>
    <City>臺東市</City>
    <Village>東海里</Village>
    <Number>1001401036-S-00006</Number>
    <Name>平安樓1樓大廳-親子廁所</Name>
    <Address>台東縣台東市長沙街303巷1號</Address>
    <Administration>臺東馬偕紀念醫院</Administration>
    <Latitude>22.75061755</Latitude>
    <Longitude>121.1408544</Longitude>
    <Grade>特優級</Grade>
    <Type>親子廁</Type>
    <Type2>醫院</Type2>
  </Data>
  <Data>
    <Country>臺東縣</Country>
    <City>臺東市</City>
    <Village>東海里</Village>
    <Number>1001401036-S-00005</Number>
    <Name>平安樓1樓大廳-女廁</Name>
    <Address>臺東縣臺東市東海里長沙街三○三巷一號</Address>
    <Administration>臺東馬偕紀念醫院</Administration>
    <Latitude>22.75063734</Latitude>
    <Longitude>121.1409402</Longitude>
    <Grade>特優級</Grade>
    <Type>女廁</Type>
    <Type2>醫院</Type2>
  </Data>
  <Data>
    <Country>臺東縣</Country>
    <City>臺東市</City>
    <Village>豐田里</Village>
    <Number>1001401030-V-00012</Number>
    <Name>停車場-無障礙</Name>
    <Address>950台東縣台東市博物館路1號</Address>
    <Administration>國立臺灣史前文化博物館</Administration>
    <Latitude>22.75998694</Latitude>
    <Longitude>121.0914266</Longitude>
    <Grade>特優級</Grade>
    <Type>無障礙廁</Type>
    <Type2>文化育樂活動場所</Type2>
  </Data>
  <Data>
    <Country>臺東縣</Country>
    <City>臺東市</City>
    <Village>豐田里</Village>
    <Number>1001401030-V-00011</Number>
    <Name>停車場-女廁</Name>
    <Address>950台東縣台東市博物館路1號</Address>
    <Administration>國立臺灣史前文化博物館</Administration>
    <Latitude>22.76010566</Latitude>
    <Longitude>121.0914803</Longitude>
    <Grade>特優級</Grade>
    <Type>女廁</Type>
    <Type2>文化育樂活動場所</Type2>
  </Data>
  <Data>
    <Country>臺東縣</Country>
    <City>臺東市</City>
    <Village>豐田里</Village>
    <Number>1001401030-V-00010</Number>
    <Name>一樓大廳-女廁</Name>
    <Address>950台東縣台東市博物館路1號</Address>
    <Administration>國立臺灣史前文化博物館</Administration>
    <Latitude>22.75994736</Latitude>
    <Longitude>121.0915554</Longitude>
    <Grade>特優級</Grade>
    <Type>女廁</Type>
    <Type2>文化育樂活動場所</Type2>
  </Data>
  <Data>
    <Country>臺東縣</Country>
    <City>臺東市</City>
    <Village>豐田里</Village>
    <Number>1001401030-T-00048</Number>
    <Name>張光直紀念圖書室旁-女廁</Name>
    <Address>950台東縣台東市博物館路1號</Address>
    <Administration>國立臺灣史前文化博物館</Administration>
    <Latitude>22.76000672</Latitude>
    <Longitude>121.0913944</Longitude>
    <Grade>特優級</Grade>
    <Type>女廁</Type>
    <Type2>各級機關學校</Type2>
  </Data>
  <Data>
    <Country>臺東縣</Country>
    <City>臺東市</City>
    <Village>文化里</Village>
    <Number>1001401023-T-00057</Number>
    <Name>水利科旁-女廁</Name>
    <Address>台東縣台東市中山路276號</Address>
    <Administration>臺東縣政府</Administration>
    <Latitude>22.75556451</Latitude>
    <Longitude>121.1499792</Longitude>
    <Grade>特優級</Grade>
    <Type>女廁</Type>
    <Type2>各級機關學校</Type2>
  </Data>
  <Data>
    <Country>臺東縣</Country>
    <City>臺東市</City>
    <Village>文化里</Village>
    <Number>1001401023-T-00056</Number>
    <Name>水利科旁-男廁</Name>
    <Address>台東縣台東市中山路276號</Address>
    <Administration>臺東縣政府</Administration>
    <Latitude>22.75561274</Latitude>
    <Longitude>121.1500114</Longitude>
    <Grade>特優級</Grade>
    <Type>男廁</Type>
    <Type2>各級機關學校</Type2>
  </Data>
  <Data>
    <Country>臺東縣</Country>
    <City>臺東市</City>
    <Village>文化里</Village>
    <Number>1001401023-T-00055</Number>
    <Name>發包中心-女廁</Name>
    <Address>台東縣台東市中山路276號</Address>
    <Administration>臺東縣政府</Administration>
    <Latitude>22.75546062</Latitude>
    <Longitude>121.1498934</Longitude>
    <Grade>特優級</Grade>
    <Type>女廁</Type>
    <Type2>各級機關學校</Type2>
  </Data>
  <Data>
    <Country>臺東縣</Country>
    <City>臺東市</City>
    <Village>文化里</Village>
    <Number>1001401023-T-00054</Number>
    <Name>漁業科旁-女廁</Name>
    <Address>台東縣台東市中山路276號</Address>
    <Administration>臺東縣政府</Administration>
    <Latitude>22.75565355</Latitude>
    <Longitude>121.1503279</Longitude>
    <Grade>特優級</Grade>
    <Type>女廁</Type>
    <Type2>各級機關學校</Type2>
  </Data>
  <Data>
    <Country>臺東縣</Country>
    <City>臺東市</City>
    <Village>文化里</Village>
    <Number>1001401023-T-00053</Number>
    <Name>一樓大廳-無障礙廁所</Name>
    <Address>台東縣台東市中山路276號</Address>
    <Administration>臺東縣政府</Administration>
    <Latitude>22.75067691</Latitude>
    <Longitude>121.1408436</Longitude>
    <Grade>特優級</Grade>
    <Type>無障礙廁</Type>
    <Type2>各級機關學校</Type2>
  </Data>
  <Data>
    <Country>臺東縣</Country>
    <City>臺東市</City>
    <Village>文化里</Village>
    <Number>1001401023-T-00052</Number>
    <Name>一樓大廳-女廁</Name>
    <Address>台東縣台東市中山路276號</Address>
    <Administration>臺東縣政府</Administration>
    <Latitude>22.7556585</Latitude>
    <Longitude>121.1503547</Longitude>
    <Grade>特優級</Grade>
    <Type>女廁</Type>
    <Type2>各級機關學校</Type2>
  </Data>
  <Data>
    <Country>臺東縣</Country>
    <City>臺東市</City>
    <Village>仁愛里</Village>
    <Number>1001401019-X-00002</Number>
    <Name>天后宮-女廁</Name>
    <Address>台東縣台東市中華路一段222號</Address>
    <Administration>天后宮</Administration>
    <Latitude>22.75709308</Latitude>
    <Longitude>121.1549628</Longitude>
    <Grade>特優級</Grade>
    <Type>女廁</Type>
    <Type2>寺廟教堂等宗教活動場所</Type2>
  </Data>
  <Data>
    <Country>臺東縣</Country>
    <City>臺東市</City>
    <Village>民族里</Village>
    <Number>1001401013-N-00005</Number>
    <Name>臺東縣公教會館-女廁</Name>
    <Address>臺東縣臺東市民族里南京路一九號</Address>
    <Administration>臺東縣公教會館</Administration>
    <Latitude>22.7558539</Latitude>
    <Longitude>121.1450896</Longitude>
    <Grade>特優級</Grade>
    <Type>女廁</Type>
    <Type2>旅館</Type2>
  </Data>
  <Data>
    <Country>臺東縣</Country>
    <City>臺東市</City>
    <Village>南王里</Village>
    <Number>1001401004-V-00006</Number>
    <Name>停車場-女廁</Name>
    <Address>台東縣台東市南王里文化公園路200號</Address>
    <Administration>國立臺灣史前文化博物館</Administration>
    <Latitude>22.79217138</Latitude>
    <Longitude>121.1148745</Longitude>
    <Grade>特優級</Grade>
    <Type>女廁</Type>
    <Type2>文化育樂活動場所</Type2>
  </Data>
  <Data>
    <Country>臺東縣</Country>
    <City>臺東市</City>
    <Village>南王里</Village>
    <Number>1001401004-V-00005</Number>
    <Name>考古現場旁-女廁</Name>
    <Address>臺東縣臺東市南王里文化公園路二○○號</Address>
    <Administration>國立臺灣史前文化博物館</Administration>
    <Latitude>22.79281925</Latitude>
    <Longitude>121.1158991</Longitude>
    <Grade>特優級</Grade>
    <Type>女廁</Type>
    <Type2>文化育樂活動場所</Type2>
  </Data>
  <Data>
    <Country>臺東縣</Country>
    <City>臺東市</City>
    <Village>富岡里</Village>
    <Number>1001401001-B-00017</Number>
    <Name>小野柳遊客中心-親子廁所</Name>
    <Address>台東市松江路一段500號</Address>
    <Administration>交通部觀光局東海岸國家風景區管理處</Administration>
    <Latitude>22.79557882</Latitude>
    <Longitude>121.196183</Longitude>
    <Grade>特優級</Grade>
    <Type>親子廁</Type>
    <Type2>觀光地區及風景區</Type2>
  </Data>
  <Data>
    <Country>臺東縣</Country>
    <City>臺東市</City>
    <Village>富岡里</Village>
    <Number>1001401001-B-00016</Number>
    <Name>小野柳遊客中心-女廁</Name>
    <Address></Address>
    <Administration>交通部觀光局東海岸國家風景區管理處</Administration>
    <Latitude>22.79559366</Latitude>
    <Longitude>121.1961615</Longitude>
    <Grade>特優級</Grade>
    <Type>女廁</Type>
    <Type2>觀光地區及風景區</Type2>
  </Data>
  <Data>
    <Country>臺東縣</Country>
    <City>臺東市</City>
    <Village>富岡里</Village>
    <Number>1001401001-B-00015</Number>
    <Name>小野柳海濱步道（南）-女廁</Name>
    <Address>台東市松江路一段500號</Address>
    <Administration>交通部觀光局東海岸國家風景區管理處</Administration>
    <Latitude>22.7941026</Latitude>
    <Longitude>121.1963761</Longitude>
    <Grade>優等級</Grade>
    <Type>女廁</Type>
    <Type2>觀光地區及風景區</Type2>
  </Data>
  <Data>
    <Country>臺東縣</Country>
    <City>臺東市</City>
    <Village>富岡里</Village>
    <Number>1001401001-B-00014</Number>
    <Name>小野柳海濱步道（北）-女廁</Name>
    <Address>台東市松江路一段500號</Address>
    <Administration>交通部觀光局東海岸國家風景區管理處</Administration>
    <Latitude>22.79590522</Latitude>
    <Longitude>121.1980927</Longitude>
    <Grade>優等級</Grade>
    <Type>女廁</Type>
    <Type2>觀光地區及風景區</Type2>
  </Data>
  <Data>
    <Country>臺東縣</Country>
    <City>臺東市</City>
    <Village>富岡里</Village>
    <Number>1001401001-B-00013</Number>
    <Name>小野柳六角廣場旁-親子廁所</Name>
    <Address>台東市松江路一段500號</Address>
    <Administration>交通部觀光局東海岸國家風景區管理處</Administration>
    <Latitude>22.79498042</Latitude>
    <Longitude>121.1964136</Longitude>
    <Grade>特優級</Grade>
    <Type>親子廁</Type>
    <Type2>觀光地區及風景區</Type2>
  </Data>
  <Data>
    <Country>臺東縣</Country>
    <City>臺東市</City>
    <Village>富岡里</Village>
    <Number>1001401001-B-00012</Number>
    <Name>小野柳六角廣場旁-女廁</Name>
    <Address>台東市松江路一段500號</Address>
    <Administration>交通部觀光局東海岸國家風景區管理處</Administration>
    <Latitude>22.79443148</Latitude>
    <Longitude>121.1958289</Longitude>
    <Grade>特優級</Grade>
    <Type>女廁</Type>
    <Type2>觀光地區及風景區</Type2>
  </Data>
  <Data>
    <Country>臺東縣</Country>
    <City>臺東市</City>
    <Village>富岡里</Village>
    <Number>1001401001-B-00011</Number>
    <Name>小野柳（北停車場）-無障礙廁所</Name>
    <Address>台東市松江路一段500號</Address>
    <Administration>交通部觀光局東海岸國家風景區管理處</Administration>
    <Latitude>22.79715146</Latitude>
    <Longitude>121.1969876</Longitude>
    <Grade>優等級</Grade>
    <Type>無障礙廁</Type>
    <Type2>觀光地區及風景區</Type2>
  </Data>
  <Data>
    <Country>臺東縣</Country>
    <City>臺東市</City>
    <Village>富岡里</Village>
    <Number>1001401001-B-00010</Number>
    <Name>小野柳（北停車場）-女廁</Name>
    <Address>台東市松江路一段500號</Address>
    <Administration>交通部觀光局東海岸國家風景區管理處</Administration>
    <Latitude>22.79711189</Latitude>
    <Longitude>121.1969876</Longitude>
    <Grade>優等級</Grade>
    <Type>女廁</Type>
    <Type2>觀光地區及風景區</Type2>
  </Data>
  <Data>
    <Country>臺東縣</Country>
    <City>臺東市</City>
    <Village>富岡里</Village>
    <Number>1001401001-B-00009</Number>
    <Name>伽路蘭遊憩區-親子廁所</Name>
    <Address>台11線157.5K</Address>
    <Administration>交通部觀光局東海岸國家風景區管理處</Administration>
    <Latitude>22.80588963</Latitude>
    <Longitude>121.1973417</Longitude>
    <Grade>優等級</Grade>
    <Type>親子廁</Type>
    <Type2>觀光地區及風景區</Type2>
  </Data>
  <Data>
    <Country>臺東縣</Country>
    <City>臺東市</City>
    <Village>富岡里</Village>
    <Number>1001401001-B-00008</Number>
    <Name>伽路蘭遊憩區-女廁</Name>
    <Address>台11線157.5K</Address>
    <Administration>交通部觀光局東海岸國家風景區管理處</Administration>
    <Latitude>22.80590447</Latitude>
    <Longitude>121.197331</Longitude>
    <Grade>優等級</Grade>
    <Type>女廁</Type>
    <Type2>觀光地區及風景區</Type2>
  </Data>
  <Data>
    <Country>屏東縣</Country>
    <City>春日鄉</City>
    <Village>力里村</Village>
    <Number>1001331006-W-00001</Number>
    <Name>力里集會所混合廁</Name>
    <Address>屏東縣春日鄉力里村圓山路三七號</Address>
    <Administration>春日鄉公所清潔隊</Administration>
    <Latitude>22.43295663</Latitude>
    <Longitude>120.6474513</Longitude>
    <Grade>優等級</Grade>
    <Type>混合廁</Type>
    <Type2>民眾團體活動場所</Type2>
  </Data>
  <Data>
    <Country>屏東縣</Country>
    <City>春日鄉</City>
    <Village>春日村</Village>
    <Number>1001331001-W-00002</Number>
    <Name>春日鄉集會所女廁</Name>
    <Address>屏東縣春日鄉春日村春日路二八號</Address>
    <Administration>春日鄉公所清潔隊</Administration>
    <Latitude>22.37022024</Latitude>
    <Longitude>120.6239954</Longitude>
    <Grade>優等級</Grade>
    <Type>女廁</Type>
    <Type2>民眾團體活動場所</Type2>
  </Data>
  <Data>
    <Country>屏東縣</Country>
    <City>春日鄉</City>
    <Village>春日村</Village>
    <Number>1001331001-W-00001</Number>
    <Name>春日集會所男廁</Name>
    <Address>屏東縣春日鄉春日村春日路二八號</Address>
    <Administration>春日鄉公所清潔隊</Administration>
    <Latitude>22.37022024</Latitude>
    <Longitude>120.623998</Longitude>
    <Grade>優等級</Grade>
    <Type>男廁</Type>
    <Type2>民眾團體活動場所</Type2>
  </Data>
  <Data>
    <Country>屏東縣</Country>
    <City>泰武鄉</City>
    <Village>佳興村</Village>
    <Number>1001329004-W-00002</Number>
    <Name>佳興村村辦公室</Name>
    <Address>屏東縣泰武鄉佳興村二八號</Address>
    <Administration>泰武鄉鄉公所</Administration>
    <Latitude>22.5665429</Latitude>
    <Longitude>120.6669617</Longitude>
    <Grade>優等級</Grade>
    <Type>混合廁</Type>
    <Type2>民眾團體活動場所</Type2>
  </Data>
  <Data>
    <Country>屏東縣</Country>
    <City>泰武鄉</City>
    <Village>佳興村</Village>
    <Number>1001329004-W-00001</Number>
    <Name>佳興村集會所混合廁</Name>
    <Address>屏東縣泰武鄉佳興村二八號</Address>
    <Administration>佳興村集會所</Administration>
    <Latitude>22.5665429</Latitude>
    <Longitude>120.6669617</Longitude>
    <Grade>優等級</Grade>
    <Type>混合廁</Type>
    <Type2>民眾團體活動場所</Type2>
  </Data>
  <Data>
    <Country>屏東縣</Country>
    <City>泰武鄉</City>
    <Village>佳平村</Village>
    <Number>1001329001-W-00001</Number>
    <Name>佳平村馬仕部落公廁混合廁</Name>
    <Address>屏東縣泰武鄉佳平村佳平巷一八號</Address>
    <Administration>泰武鄉公所</Administration>
    <Latitude>22.5919827</Latitude>
    <Longitude>120.6291103</Longitude>
    <Grade>優等級</Grade>
    <Type>混合廁</Type>
    <Type2>民眾團體活動場所</Type2>
  </Data>
  <Data>
    <Country>屏東縣</Country>
    <City>南州鄉</City>
    <Village>壽元村</Village>
    <Number>1001320008-L-00002</Number>
    <Name>南州全家壽元店</Name>
    <Address>屏東縣南州鄉壽元村勝利路五之一○號</Address>
    <Administration>南州全家壽元店</Administration>
    <Latitude>22.4913849</Latitude>
    <Longitude>120.5338383</Longitude>
    <Grade>優等級</Grade>
    <Type>混合廁</Type>
    <Type2>超市</Type2>
  </Data>
  <Data>
    <Country>屏東縣</Country>
    <City>南州鄉</City>
    <Village>壽元村</Village>
    <Number>1001320008-L-00001</Number>
    <Name>7-11南州壽元門市</Name>
    <Address>屏東縣南州鄉壽元村勝利路五之一五號</Address>
    <Administration>7-11南州壽元門市</Administration>
    <Latitude>22.48956094</Latitude>
    <Longitude>120.5340099</Longitude>
    <Grade>優等級</Grade>
    <Type>混合廁</Type>
    <Type2>超市</Type2>
  </Data>
  <Data>
    <Country>屏東縣</Country>
    <City>九如鄉</City>
    <Village>東寧村</Village>
    <Number>1001308010-A-00001</Number>
    <Name>國光客運九如站混合廁</Name>
    <Address>屏東縣九如鄉東寧村九如路二段二七○號</Address>
    <Administration>國光客運九如站</Administration>
    <Latitude>22.736822</Latitude>
    <Longitude>120.4893605</Longitude>
    <Grade>優等級</Grade>
    <Type>混合廁</Type>
    <Type2>公路車站服務區及休息站</Type2>
  </Data>
  <Data>
    <Country>屏東縣</Country>
    <City>麟洛鄉</City>
    <Village>麟蹄村</Village>
    <Number>1001307003-A-00001</Number>
    <Name>國光客運麟洛站混合測</Name>
    <Address>屏東縣麟洛鄉麟蹄村中山路六六號</Address>
    <Administration>國光客運麟洛站</Administration>
    <Latitude>22.64806143</Latitude>
    <Longitude>120.5294394</Longitude>
    <Grade>優等級</Grade>
    <Type>混合廁</Type>
    <Type2>公路車站服務區及休息站</Type2>
  </Data>
  <Data>
    <Country>嘉義縣</Country>
    <City>梅山鄉</City>
    <Village>太平村</Village>
    <Number>1001015012-B-00005</Number>
    <Name>太平雲梯遊客中心殘障廁所</Name>
    <Address>嘉義縣梅山鄉太平村下坑仔5號</Address>
    <Administration>阿里山國家風景區管理處</Administration>
    <Latitude>23.55954199</Latitude>
    <Longitude>120.6002605</Longitude>
    <Grade>特優級</Grade>
    <Type>無障礙廁</Type>
    <Type2>觀光地區及風景區</Type2>
  </Data>
  <Data>
    <Country>嘉義縣</Country>
    <City>梅山鄉</City>
    <Village>太平村</Village>
    <Number>1001015012-B-00004</Number>
    <Name>太平雲梯遊客中心女廁</Name>
    <Address>嘉義縣梅山鄉太平村下坑仔5號</Address>
    <Administration>阿里山國家風景區管理處</Administration>
    <Latitude>23.55954199</Latitude>
    <Longitude>120.6002605</Longitude>
    <Grade>特優級</Grade>
    <Type>女廁</Type>
    <Type2>觀光地區及風景區</Type2>
  </Data>
  <Data>
    <Country>嘉義縣</Country>
    <City>梅山鄉</City>
    <Village>太平村</Village>
    <Number>1001015012-B-00003</Number>
    <Name>太平雲梯遊客中心男廁</Name>
    <Address>嘉義縣梅山鄉太平村下坑仔5號</Address>
    <Administration>阿里山國家風景區管理處</Administration>
    <Latitude>23.55954199</Latitude>
    <Longitude>120.6002605</Longitude>
    <Grade>特優級</Grade>
    <Type>男廁</Type>
    <Type2>觀光地區及風景區</Type2>
  </Data>
  <Data>
    <Country>嘉義縣</Country>
    <City>中埔鄉</City>
    <Village>石?村</Village>
    <Number>1001013014-W-00002</Number>
    <Name>石?衛生室</Name>
    <Address>嘉義縣中埔鄉石?村藤寮49號之1</Address>
    <Administration>石?村辦公處</Administration>
    <Latitude>23.39817156</Latitude>
    <Longitude>120.5746374</Longitude>
    <Grade>特優級</Grade>
    <Type>混合廁</Type>
    <Type2>民眾團體活動場所</Type2>
  </Data>
  <Data>
    <Country>嘉義縣</Country>
    <City>中埔鄉</City>
    <Village>石?村</Village>
    <Number>1001013014-W-00001</Number>
    <Name>石?活動中心</Name>
    <Address>嘉義縣中埔鄉石?村中山國小旁</Address>
    <Administration>石?活動中心</Administration>
    <Latitude>23.41262062</Latitude>
    <Longitude>120.5478823</Longitude>
    <Grade>特優級</Grade>
    <Type>混合廁</Type>
    <Type2>民眾團體活動場所</Type2>
  </Data>
  <Data>
    <Country>嘉義縣</Country>
    <City>中埔鄉</City>
    <Village>裕民村</Village>
    <Number>1001013004-W-00001</Number>
    <Name>裕民活動中心</Name>
    <Address>嘉義縣中埔鄉裕民村石頭厝8號之1</Address>
    <Administration>裕民活動中心</Administration>
    <Latitude>23.43155462</Latitude>
    <Longitude>120.5125979</Longitude>
    <Grade>優等級</Grade>
    <Type>混合廁</Type>
    <Type2>民眾團體活動場所</Type2>
  </Data>
  <Data>
    <Country>雲林縣</Country>
    <City>麥寮鄉</City>
    <Village>麥豐村</Village>
    <Number>1000913002-W-00001</Number>
    <Name>麥寮鄉老人會(殘障廁所)</Name>
    <Address>雲林縣麥寮鄉麥豐村光復南路</Address>
    <Administration>麥寮鄉老人會</Administration>
    <Latitude>23.74531197</Latitude>
    <Longitude>120.2562039</Longitude>
    <Grade>優等級</Grade>
    <Type>混合廁</Type>
    <Type2>民眾團體活動場所</Type2>
  </Data>
  <Data>
    <Country>雲林縣</Country>
    <City>林內鄉</City>
    <Village>林南村</Village>
    <Number>1000910001-E-00001</Number>
    <Name>林內鄉市場混合廁所</Name>
    <Address>雲林縣林內鄉林南村中正路</Address>
    <Administration>林內鄉公所</Administration>
    <Latitude>23.75751641</Latitude>
    <Longitude>120.6180304</Longitude>
    <Grade>優等級</Grade>
    <Type>混合廁</Type>
    <Type2>市場</Type2>
  </Data>
  <Data>
    <Country>雲林縣</Country>
    <City>古坑鄉</City>
    <Village>永光村</Village>
    <Number>1000907010-B-00003</Number>
    <Name>蘿莎玫瑰莊園(無障礙暨親子廁所)</Name>
    <Address>雲林縣古坑鄉永光村大湖口46-1號</Address>
    <Administration>蘿莎玫瑰山莊股份有限公司古坑園區</Administration>
    <Latitude>23.61511503</Latitude>
    <Longitude>120.5814743</Longitude>
    <Grade>特優級</Grade>
    <Type>無障礙廁</Type>
    <Type2>觀光地區及風景區</Type2>
  </Data>
  <Data>
    <Country>雲林縣</Country>
    <City>古坑鄉</City>
    <Village>永光村</Village>
    <Number>1000907010-B-00002</Number>
    <Name>蘿莎玫瑰莊園(男廁)</Name>
    <Address>雲林縣古坑鄉永光村大湖口46-1號</Address>
    <Administration>蘿莎玫瑰山莊股份有限公司古坑園區</Administration>
    <Latitude>23.61415165</Latitude>
    <Longitude>120.5819249</Longitude>
    <Grade>特優級</Grade>
    <Type>男廁</Type>
    <Type2>觀光地區及風景區</Type2>
  </Data>
  <Data>
    <Country>雲林縣</Country>
    <City>古坑鄉</City>
    <Village>永光村</Village>
    <Number>1000907010-B-00001</Number>
    <Name>蘿莎玫瑰莊園(女廁)</Name>
    <Address>雲林縣古坑鄉永光村大湖口四六之一號</Address>
    <Administration>蘿莎玫瑰山莊股份有限公司古坑園區</Administration>
    <Latitude>23.60685725</Latitude>
    <Longitude>120.563879</Longitude>
    <Grade>特優級</Grade>
    <Type>女廁</Type>
    <Type2>觀光地區及風景區</Type2>
  </Data>
  <Data>
    <Country>彰化縣</Country>
    <City>田尾鄉</City>
    <Village>打簾村</Village>
    <Number>1000721013-X-00108</Number>
    <Name>受武宮-打簾村</Name>
    <Address>彰化縣田尾鄉打簾村公園路一段四三六號</Address>
    <Administration>受武宮-打簾村</Administration>
    <Latitude>23.90576264</Latitude>
    <Longitude>120.5242695</Longitude>
    <Grade>特優級</Grade>
    <Type>混合廁</Type>
    <Type2>寺廟教堂等宗教活動場所</Type2>
  </Data>
  <Data>
    <Country>彰化縣</Country>
    <City>永靖鄉</City>
    <Village>港西村</Village>
    <Number>1000716005-C-00049</Number>
    <Name>永靖加油站女廁</Name>
    <Address>彰化縣永靖鄉中山路一段637號</Address>
    <Administration>永靖站</Administration>
    <Latitude>23.915599</Latitude>
    <Longitude>120.544892</Longitude>
    <Grade>特優級</Grade>
    <Type>女廁</Type>
    <Type2>加油站</Type2>
  </Data>
  <Data>
    <Country>彰化縣</Country>
    <City>伸港鄉</City>
    <Village>新港村</Village>
    <Number>1000705010-C-00007</Number>
    <Name>伸港加油站女廁</Name>
    <Address>伸港鄉新港村新港路95號</Address>
    <Administration>伸港站</Administration>
    <Latitude>24.143411</Latitude>
    <Longitude>120.487655</Longitude>
    <Grade>特優級</Grade>
    <Type>女廁</Type>
    <Type2>加油站</Type2>
  </Data>
  <Data>
    <Country>彰化縣</Country>
    <City>彰化市</City>
    <Village>延平里</Village>
    <Number>1000701047-S-00060</Number>
    <Name>秀傳醫院門診2F女廁</Name>
    <Address>彰化市延平里中山路1段542號</Address>
    <Administration>秀傳醫院</Administration>
    <Latitude>24.06490202</Latitude>
    <Longitude>120.537765</Longitude>
    <Grade>特優級</Grade>
    <Type>女廁</Type>
    <Type2>醫院</Type2>
  </Data>
  <Data>
    <Country>彰化縣</Country>
    <City>彰化市</City>
    <Village>延平里</Village>
    <Number>1000701047-S-00059</Number>
    <Name>秀傳醫院門診2F男廁</Name>
    <Address>彰化市延平里中山路1段542號</Address>
    <Administration>秀傳醫院</Administration>
    <Latitude>24.06490202</Latitude>
    <Longitude>120.537765</Longitude>
    <Grade>特優級</Grade>
    <Type>男廁</Type>
    <Type2>醫院</Type2>
  </Data>
  <Data>
    <Country>彰化縣</Country>
    <City>彰化市</City>
    <Village>延平里</Village>
    <Number>1000701047-S-00058</Number>
    <Name>秀傳醫院急診女廁</Name>
    <Address>彰化市延平里中山路1段542號</Address>
    <Administration>秀傳醫院</Administration>
    <Latitude>24.06490202</Latitude>
    <Longitude>120.537765</Longitude>
    <Grade>特優級</Grade>
    <Type>女廁</Type>
    <Type2>醫院</Type2>
  </Data>
  <Data>
    <Country>彰化縣</Country>
    <City>彰化市</City>
    <Village>延平里</Village>
    <Number>1000701047-S-00057</Number>
    <Name>秀傳醫院第五醫療大樓殘障廁所</Name>
    <Address>彰化市延平里中山路1段542號</Address>
    <Administration>秀傳醫院</Administration>
    <Latitude>24.06490202</Latitude>
    <Longitude>120.537765</Longitude>
    <Grade>特優級</Grade>
    <Type>無障礙廁</Type>
    <Type2>醫院</Type2>
  </Data>
  <Data>
    <Country>彰化縣</Country>
    <City>彰化市</City>
    <Village>延平里</Village>
    <Number>1000701047-S-00056</Number>
    <Name>秀傳醫院第五醫療大樓友善廁所</Name>
    <Address>彰化縣彰化市中山路一段五四二號</Address>
    <Administration>秀傳醫院</Administration>
    <Latitude>24.06612097</Latitude>
    <Longitude>120.5403209</Longitude>
    <Grade>特優級</Grade>
    <Type>混合廁</Type>
    <Type2>醫院</Type2>
  </Data>
  <Data>
    <Country>苗栗縣</Country>
    <City>大湖鄉</City>
    <Village>大寮村</Village>
    <Number>1000508006-B-00013</Number>
    <Name>三兩三停車場</Name>
    <Address>苗栗縣大湖鄉大寮村大窩9號</Address>
    <Administration>三兩三停車場</Administration>
    <Latitude>24.41628233</Latitude>
    <Longitude>120.8691788</Longitude>
    <Grade>優等級</Grade>
    <Type>混合廁</Type>
    <Type2>觀光地區及風景區</Type2>
  </Data>
  <Data>
    <Country>宜蘭縣</Country>
    <City>員山鄉</City>
    <Village>員山村</Village>
    <Number>1000207001-Y-00020</Number>
    <Name>員山鄉公所4樓無障礙廁所</Name>
    <Address>宜蘭縣員山鄉員山村員山路一段322號</Address>
    <Administration>員山鄉公所</Administration>
    <Latitude>24.7435087</Latitude>
    <Longitude>121.72328</Longitude>
    <Grade>特優級</Grade>
    <Type>無障礙廁</Type>
    <Type2>公家機關設置供民眾使用者</Type2>
  </Data>
  <Data>
    <Country>宜蘭縣</Country>
    <City>員山鄉</City>
    <Village>員山村</Village>
    <Number>1000207001-Y-00019</Number>
    <Name>員山鄉公所4樓右側女廁</Name>
    <Address>宜蘭縣員山鄉員山村員山路一段322號</Address>
    <Administration>員山鄉公所</Administration>
    <Latitude>24.74355254</Latitude>
    <Longitude>121.7232531</Longitude>
    <Grade>特優級</Grade>
    <Type>女廁</Type>
    <Type2>公家機關設置供民眾使用者</Type2>
  </Data>
  <Data>
    <Country>宜蘭縣</Country>
    <City>員山鄉</City>
    <Village>員山村</Village>
    <Number>1000207001-Y-00018</Number>
    <Name>員山鄉公所4樓右側男廁</Name>
    <Address>宜蘭縣員山鄉員山村員山路一段322號</Address>
    <Administration>員山鄉公所</Administration>
    <Latitude>24.74359883</Latitude>
    <Longitude>121.7232665</Longitude>
    <Grade>特優級</Grade>
    <Type>男廁</Type>
    <Type2>公家機關設置供民眾使用者</Type2>
  </Data>
  <Data>
    <Country>宜蘭縣</Country>
    <City>員山鄉</City>
    <Village>員山村</Village>
    <Number>1000207001-Y-00017</Number>
    <Name>員山鄉公所4樓左側女廁</Name>
    <Address>宜蘭縣員山鄉員山村員山路一段322號</Address>
    <Administration>員山鄉公所</Administration>
    <Latitude>24.7433528</Latitude>
    <Longitude>121.72306</Longitude>
    <Grade>特優級</Grade>
    <Type>女廁</Type>
    <Type2>公家機關設置供民眾使用者</Type2>
  </Data>
  <Data>
    <Country>宜蘭縣</Country>
    <City>員山鄉</City>
    <Village>員山村</Village>
    <Number>1000207001-Y-00016</Number>
    <Name>員山鄉公所4樓左側男廁</Name>
    <Address>宜蘭縣員山鄉員山村員山路一段322號</Address>
    <Administration>員山鄉公所</Administration>
    <Latitude>24.74340152</Latitude>
    <Longitude>121.7231083</Longitude>
    <Grade>特優級</Grade>
    <Type>男廁</Type>
    <Type2>公家機關設置供民眾使用者</Type2>
  </Data>
  <Data>
    <Country>宜蘭縣</Country>
    <City>員山鄉</City>
    <Village>員山村</Village>
    <Number>1000207001-Y-00015</Number>
    <Name>員山鄉公所3樓無障礙廁所</Name>
    <Address>宜蘭縣員山鄉員山村員山路一段322號</Address>
    <Administration>員山鄉公所</Administration>
    <Latitude>24.74349895</Latitude>
    <Longitude>121.7233443</Longitude>
    <Grade>特優級</Grade>
    <Type>無障礙廁</Type>
    <Type2>公家機關設置供民眾使用者</Type2>
  </Data>
  <Data>
    <Country>宜蘭縣</Country>
    <City>員山鄉</City>
    <Village>員山村</Village>
    <Number>1000207001-Y-00014</Number>
    <Name>員山鄉公所3樓右側女廁</Name>
    <Address>宜蘭縣員山鄉員山村員山路一段322號</Address>
    <Administration>員山鄉公所</Administration>
    <Latitude>24.7435769</Latitude>
    <Longitude>121.7232585</Longitude>
    <Grade>特優級</Grade>
    <Type>女廁</Type>
    <Type2>公家機關設置供民眾使用者</Type2>
  </Data>
  <Data>
    <Country>宜蘭縣</Country>
    <City>員山鄉</City>
    <Village>員山村</Village>
    <Number>1000207001-Y-00013</Number>
    <Name>員山鄉公所3樓右側男廁</Name>
    <Address>宜蘭縣員山鄉員山村員山路一段322號</Address>
    <Administration>員山鄉公所</Administration>
    <Latitude>24.74357203</Latitude>
    <Longitude>121.7232746</Longitude>
    <Grade>特優級</Grade>
    <Type>男廁</Type>
    <Type2>公家機關設置供民眾使用者</Type2>
  </Data>
  <Data>
    <Country>宜蘭縣</Country>
    <City>員山鄉</City>
    <Village>員山村</Village>
    <Number>1000207001-Y-00012</Number>
    <Name>員山鄉公所3樓左側女廁</Name>
    <Address>宜蘭縣員山鄉員山村員山路一段322號</Address>
    <Administration>員山鄉公所</Administration>
    <Latitude>24.74334305</Latitude>
    <Longitude>121.7230654</Longitude>
    <Grade>特優級</Grade>
    <Type>女廁</Type>
    <Type2>公家機關設置供民眾使用者</Type2>
  </Data>
  <Data>
    <Country>宜蘭縣</Country>
    <City>員山鄉</City>
    <Village>員山村</Village>
    <Number>1000207001-Y-00011</Number>
    <Name>員山鄉公所3樓左側男廁</Name>
    <Address>宜蘭縣員山鄉員山村員山路一段322號</Address>
    <Administration>員山鄉公所</Administration>
    <Latitude>24.74339664</Latitude>
    <Longitude>121.7230278</Longitude>
    <Grade>特優級</Grade>
    <Type>男廁</Type>
    <Type2>公家機關設置供民眾使用者</Type2>
  </Data>
  <Data>
    <Country>宜蘭縣</Country>
    <City>員山鄉</City>
    <Village>員山村</Village>
    <Number>1000207001-Y-00010</Number>
    <Name>員山鄉公所2樓無障礙廁所</Name>
    <Address>宜蘭縣員山鄉員山村員山路一段322號</Address>
    <Administration>員山鄉公所</Administration>
    <Latitude>24.74359152</Latitude>
    <Longitude>121.7232585</Longitude>
    <Grade>特優級</Grade>
    <Type>無障礙廁</Type>
    <Type2>公家機關設置供民眾使用者</Type2>
  </Data>
  <Data>
    <Country>宜蘭縣</Country>
    <City>員山鄉</City>
    <Village>員山村</Village>
    <Number>1000207001-Y-00009</Number>
    <Name>員山鄉公所2樓右側女廁</Name>
    <Address>宜蘭縣員山鄉員山村員山路一段322號</Address>
    <Administration>員山鄉公所</Administration>
    <Latitude>24.74359639</Latitude>
    <Longitude>121.7232478</Longitude>
    <Grade>特優級</Grade>
    <Type>女廁</Type>
    <Type2>公家機關設置供民眾使用者</Type2>
  </Data>
  <Data>
    <Country>宜蘭縣</Country>
    <City>員山鄉</City>
    <Village>員山村</Village>
    <Number>1000207001-Y-00008</Number>
    <Name>員山鄉公所2樓右側男廁</Name>
    <Address>宜蘭縣員山鄉員山村員山路一段322號</Address>
    <Administration>員山鄉公所</Administration>
    <Latitude>24.74361588</Latitude>
    <Longitude>121.7232585</Longitude>
    <Grade>特優級</Grade>
    <Type>男廁</Type>
    <Type2>公家機關設置供民眾使用者</Type2>
  </Data>
  <Data>
    <Country>宜蘭縣</Country>
    <City>員山鄉</City>
    <Village>員山村</Village>
    <Number>1000207001-Y-00007</Number>
    <Name>員山鄉公所2樓左側女廁</Name>
    <Address>宜蘭縣員山鄉員山村員山路一段322號</Address>
    <Administration>員山鄉公所</Administration>
    <Latitude>24.74336741</Latitude>
    <Longitude>121.7230171</Longitude>
    <Grade>特優級</Grade>
    <Type>女廁</Type>
    <Type2>公家機關設置供民眾使用者</Type2>
  </Data>
  <Data>
    <Country>宜蘭縣</Country>
    <City>員山鄉</City>
    <Village>員山村</Village>
    <Number>1000207001-Y-00006</Number>
    <Name>員山鄉公所2樓左側男廁</Name>
    <Address>宜蘭縣員山鄉員山村員山路一段322號</Address>
    <Administration>員山鄉公所</Administration>
    <Latitude>24.74339177</Latitude>
    <Longitude>121.7229956</Longitude>
    <Grade>特優級</Grade>
    <Type>男廁</Type>
    <Type2>公家機關設置供民眾使用者</Type2>
  </Data>
  <Data>
    <Country>宜蘭縣</Country>
    <City>員山鄉</City>
    <Village>員山村</Village>
    <Number>1000207001-Y-00005</Number>
    <Name>員山鄉公所1樓無障礙廁所</Name>
    <Address>宜蘭縣員山鄉員山村員山路一段322號</Address>
    <Administration>員山鄉公所</Administration>
    <Latitude>24.74362562</Latitude>
    <Longitude>121.7232558</Longitude>
    <Grade>特優級</Grade>
    <Type>無障礙廁</Type>
    <Type2>公家機關設置供民眾使用者</Type2>
  </Data>
  <Data>
    <Country>宜蘭縣</Country>
    <City>員山鄉</City>
    <Village>員山村</Village>
    <Number>1000207001-Y-00004</Number>
    <Name>員山鄉公所1樓右側女廁</Name>
    <Address>宜蘭縣員山鄉員山村員山路一段322號</Address>
    <Administration>員山鄉公所</Administration>
    <Latitude>24.74364755</Latitude>
    <Longitude>121.7232558</Longitude>
    <Grade>特優級</Grade>
    <Type>女廁</Type>
    <Type2>公家機關設置供民眾使用者</Type2>
  </Data>
  <Data>
    <Country>宜蘭縣</Country>
    <City>員山鄉</City>
    <Village>員山村</Village>
    <Number>1000207001-Y-00003</Number>
    <Name>員山鄉公所1樓右側男廁</Name>
    <Address>宜蘭縣員山鄉員山村員山路一段322號</Address>
    <Administration>員山鄉公所</Administration>
    <Latitude>24.7436305</Latitude>
    <Longitude>121.7232746</Longitude>
    <Grade>特優級</Grade>
    <Type>男廁</Type>
    <Type2>公家機關設置供民眾使用者</Type2>
  </Data>
  <Data>
    <Country>宜蘭縣</Country>
    <City>員山鄉</City>
    <Village>員山村</Village>
    <Number>1000207001-Y-00002</Number>
    <Name>員山鄉公所1樓左側女廁</Name>
    <Address>宜蘭縣員山鄉員山村員山路一段322號</Address>
    <Administration>員山鄉公所</Administration>
    <Latitude>24.74342831</Latitude>
    <Longitude>121.7229983</Longitude>
    <Grade>特優級</Grade>
    <Type>女廁</Type>
    <Type2>公家機關設置供民眾使用者</Type2>
  </Data>
  <Data>
    <Country>宜蘭縣</Country>
    <City>頭城鎮</City>
    <Village>大坑里</Village>
    <Number>1000204009-B-00298</Number>
    <Name>大坑景觀台女廁</Name>
    <Address>宜蘭縣頭城鎮大坑里協天路636巷36-2號</Address>
    <Administration>灆咖啡</Administration>
    <Latitude>24.85666089</Latitude>
    <Longitude>121.8317056</Longitude>
    <Grade>特優級</Grade>
    <Type>女廁</Type>
    <Type2>觀光地區及風景區</Type2>
  </Data>
  <Data>
    <Country>宜蘭縣</Country>
    <City>頭城鎮</City>
    <Village>大坑里</Village>
    <Number>1000204009-B-00297</Number>
    <Name>大坑景觀台男廁</Name>
    <Address>宜蘭縣頭城鎮大坑里協天路636巷36-2號</Address>
    <Administration>灆咖啡</Administration>
    <Latitude>24.85657328</Latitude>
    <Longitude>121.831727</Longitude>
    <Grade>特優級</Grade>
    <Type>男廁</Type>
    <Type2>觀光地區及風景區</Type2>
  </Data>
  <Data>
    <Country>宜蘭縣</Country>
    <City>蘇澳鎮</City>
    <Village>南正里</Village>
    <Number>1000203019-B-00003</Number>
    <Name>南方澳遊客中心無障礙廁所</Name>
    <Address>宜蘭縣蘇澳鎮南正里2鄰江夏路85號</Address>
    <Administration>南方澳遊客中心</Administration>
    <Latitude>24.58435862</Latitude>
    <Longitude>121.8646002</Longitude>
    <Grade>特優級</Grade>
    <Type>無障礙廁</Type>
    <Type2>觀光地區及風景區</Type2>
  </Data>
  <Data>
    <Country>宜蘭縣</Country>
    <City>蘇澳鎮</City>
    <Village>南正里</Village>
    <Number>1000203019-B-00002</Number>
    <Name>南方澳遊客中心女廁</Name>
    <Address>宜蘭縣蘇澳鎮南正里2鄰江夏路85號</Address>
    <Administration>南方澳遊客中心</Administration>
    <Latitude>24.58428056</Latitude>
    <Longitude>121.8645787</Longitude>
    <Grade>特優級</Grade>
    <Type>女廁</Type>
    <Type2>觀光地區及風景區</Type2>
  </Data>
  <Data>
    <Country>宜蘭縣</Country>
    <City>蘇澳鎮</City>
    <Village>南正里</Village>
    <Number>1000203019-B-00001</Number>
    <Name>南方澳遊客中心男廁</Name>
    <Address>宜蘭縣蘇澳鎮南正里2鄰江夏路85號</Address>
    <Administration>南方澳遊客中心</Administration>
    <Latitude>24.58444154</Latitude>
    <Longitude>121.8644929</Longitude>
    <Grade>特優級</Grade>
    <Type>男廁</Type>
    <Type2>觀光地區及風景區</Type2>
  </Data>
  <Data>
    <Country>高雄市</Country>
    <City>六龜區</City>
    <Village>六龜里</Village>
    <Number>1001221006-S-00002</Number>
    <Name>六龜區衛生所2樓女廁</Name>
    <Address>六龜區六龜里民治路16號</Address>
    <Administration>六龜衛生所</Administration>
    <Latitude>22.99839112</Latitude>
    <Longitude>120.6333254</Longitude>
    <Grade>優等級</Grade>
    <Type>女廁</Type>
    <Type2>醫院</Type2>
  </Data>
  <Data>
    <Country>高雄市</Country>
    <City>六龜區</City>
    <Village>六龜里</Village>
    <Number>1001221006-S-00001</Number>
    <Name>六龜區衛生所2樓男廁</Name>
    <Address>六龜區六龜里民治路16號</Address>
    <Administration>六龜衛生所</Administration>
    <Latitude>22.99856272</Latitude>
    <Longitude>120.6332758</Longitude>
    <Grade>優等級</Grade>
    <Type>男廁</Type>
    <Type2>醫院</Type2>
  </Data>
  <Data>
    <Country>高雄市</Country>
    <City>旗山區</City>
    <Village>湄洲里</Village>
    <Number>1001219003-D-00049</Number>
    <Name>旗山孔廟女廁</Name>
    <Address></Address>
    <Administration>旗山區公所</Administration>
    <Latitude>22.88874337</Latitude>
    <Longitude>120.4769593</Longitude>
    <Grade>優等級</Grade>
    <Type>女廁</Type>
    <Type2>公園</Type2>
  </Data>
  <Data>
    <Country>高雄市</Country>
    <City>旗山區</City>
    <Village>湄洲里</Village>
    <Number>1001219003-D-00048</Number>
    <Name>旗山孔廟男廁</Name>
    <Address></Address>
    <Administration>旗山區公所</Administration>
    <Latitude>22.8887236</Latitude>
    <Longitude>120.4769969</Longitude>
    <Grade>優等級</Grade>
    <Type>男廁</Type>
    <Type2>公園</Type2>
  </Data>
  <Data>
    <Country>高雄市</Country>
    <City>茄萣區</City>
    <Village>崎漏里</Village>
    <Number>1001215015-D-00006</Number>
    <Name>茄萣溼地公園無障礙廁所</Name>
    <Address>高雄市茄萣區崎漏里</Address>
    <Administration>高雄市政府工務局養工處</Administration>
    <Latitude>22.88319038</Latitude>
    <Longitude>120.197434</Longitude>
    <Grade>特優級</Grade>
    <Type>無障礙廁</Type>
    <Type2>公園</Type2>
  </Data>
  <Data>
    <Country>高雄市</Country>
    <City>茄萣區</City>
    <Village>崎漏里</Village>
    <Number>1001215015-D-00005</Number>
    <Name>茄萣溼地公園女廁</Name>
    <Address>高雄市茄萣區</Address>
    <Administration>高雄市政府工務局養工處</Administration>
    <Latitude>22.8831716</Latitude>
    <Longitude>120.1973509</Longitude>
    <Grade>優等級</Grade>
    <Type>女廁</Type>
    <Type2>公園</Type2>
  </Data>
  <Data>
    <Country>高雄市</Country>
    <City>茄萣區</City>
    <Village>崎漏里</Village>
    <Number>1001215015-D-00004</Number>
    <Name>茄萣溼地公園男廁</Name>
    <Address>高雄市茄萣區崎漏里</Address>
    <Administration>高雄市政府工務局養工處</Administration>
    <Latitude>22.88317753</Latitude>
    <Longitude>120.1973696</Longitude>
    <Grade>特優級</Grade>
    <Type>男廁</Type>
    <Type2>公園</Type2>
  </Data>
  <Data>
    <Country>高雄市</Country>
    <City>茄萣區</City>
    <Village>崎漏里</Village>
    <Number>1001215015-D-00003</Number>
    <Name>茄萣濱海公園無障礙廁所</Name>
    <Address>高雄市茄萣區崎漏里濱海路一段</Address>
    <Administration>高雄市政府工務局養工處</Administration>
    <Latitude>22.88429843</Latitude>
    <Longitude>120.1865319</Longitude>
    <Grade>特優級</Grade>
    <Type>無障礙廁</Type>
    <Type2>公園</Type2>
  </Data>
  <Data>
    <Country>高雄市</Country>
    <City>茄萣區</City>
    <Village>崎漏里</Village>
    <Number>1001215015-D-00002</Number>
    <Name>茄萣濱海公園女廁</Name>
    <Address>高雄市茄萣區崎漏里濱海路一段</Address>
    <Administration>高雄市政府工務局養工處</Administration>
    <Latitude>22.88467403</Latitude>
    <Longitude>120.1864246</Longitude>
    <Grade>特優級</Grade>
    <Type>女廁</Type>
    <Type2>公園</Type2>
  </Data>
  <Data>
    <Country>高雄市</Country>
    <City>茄萣區</City>
    <Village>崎漏里</Village>
    <Number>1001215015-D-00001</Number>
    <Name>茄萣濱海公園男廁</Name>
    <Address>高雄市茄萣區崎漏里濱海路一段</Address>
    <Administration>高雄市政府工務局養工處</Administration>
    <Latitude>22.88416993</Latitude>
    <Longitude>120.1865609</Longitude>
    <Grade>特優級</Grade>
    <Type>男廁</Type>
    <Type2>公園</Type2>
  </Data>
  <Data>
    <Country>高雄市</Country>
    <City>茄萣區</City>
    <Village>嘉安里</Village>
    <Number>1001215005-B-00004</Number>
    <Name>濱海活力社區廣場女無障礙廁所</Name>
    <Address>高雄市茄萣區嘉安里濱海路三段</Address>
    <Administration>高雄市政府水利局</Administration>
    <Latitude>22.9002803</Latitude>
    <Longitude>120.1795177</Longitude>
    <Grade>優等級</Grade>
    <Type>無障礙廁</Type>
    <Type2>觀光地區及風景區</Type2>
  </Data>
  <Data>
    <Country>高雄市</Country>
    <City>茄萣區</City>
    <Village>嘉安里</Village>
    <Number>1001215005-B-00003</Number>
    <Name>濱海活力社區廣場男無障礙廁所</Name>
    <Address>高雄市茄萣區嘉安里濱海路三段</Address>
    <Administration>高雄市政府水利局</Administration>
    <Latitude>22.90033293</Latitude>
    <Longitude>120.1795042</Longitude>
    <Grade>優等級</Grade>
    <Type>無障礙廁</Type>
    <Type2>觀光地區及風景區</Type2>
  </Data>
  <Data>
    <Country>高雄市</Country>
    <City>茄萣區</City>
    <Village>嘉安里</Village>
    <Number>1001215005-B-00002</Number>
    <Name>濱海活力社區廣場女廁</Name>
    <Address>高雄市茄萣區嘉安里濱海路三段</Address>
    <Administration>高雄市政府水利局</Administration>
    <Latitude>22.90027412</Latitude>
    <Longitude>120.1795115</Longitude>
    <Grade>優等級</Grade>
    <Type>女廁</Type>
    <Type2>觀光地區及風景區</Type2>
  </Data>
  <Data>
    <Country>高雄市</Country>
    <City>茄萣區</City>
    <Village>嘉安里</Village>
    <Number>1001215005-B-00001</Number>
    <Name>濱海活力社區廣場男廁</Name>
    <Address>高雄市茄萣區嘉安里濱海路三段</Address>
    <Administration>高雄市政府水利局</Administration>
    <Latitude>22.87116144</Latitude>
    <Longitude>120.1857433</Longitude>
    <Grade>特優級</Grade>
    <Type>男廁</Type>
    <Type2>觀光地區及風景區</Type2>
  </Data>
  <Data>
    <Country>高雄市</Country>
    <City>茄萣區</City>
    <Village>嘉賜里</Village>
    <Number>1001215004-V-00004</Number>
    <Name>高雄市立圖書館茄萣分館無障礙廁所</Name>
    <Address>高雄市茄萣區嘉賜里濱海路四段三一巷一號</Address>
    <Administration>高雄市政府文化局</Administration>
    <Latitude>22.90604581</Latitude>
    <Longitude>120.1804798</Longitude>
    <Grade>特優級</Grade>
    <Type>無障礙廁</Type>
    <Type2>文化育樂活動場所</Type2>
  </Data>
  <Data>
    <Country>高雄市</Country>
    <City>茄萣區</City>
    <Village>白雲里</Village>
    <Number>1001215003-D-00003</Number>
    <Name>茄萣區運動公園無障礙廁所</Name>
    <Address>高雄市茄萣區白雲里公園路</Address>
    <Administration>高雄市政府工務局養工處</Administration>
    <Latitude>22.90895577</Latitude>
    <Longitude>120.185724</Longitude>
    <Grade>特優級</Grade>
    <Type>無障礙廁</Type>
    <Type2>公園</Type2>
  </Data>
  <Data>
    <Country>高雄市</Country>
    <City>茄萣區</City>
    <Village>白雲里</Village>
    <Number>1001215003-D-00002</Number>
    <Name>茄萣區運動公園女廁</Name>
    <Address>高雄市茄萣區白雲里公園路</Address>
    <Administration>高雄市政府工務局養工處</Administration>
    <Latitude>22.90907732</Latitude>
    <Longitude>120.1854858</Longitude>
    <Grade>特優級</Grade>
    <Type>女廁</Type>
    <Type2>公園</Type2>
  </Data>
  <Data>
    <Country>高雄市</Country>
    <City>茄萣區</City>
    <Village>白雲里</Village>
    <Number>1001215003-D-00001</Number>
    <Name>茄萣區運動公園男廁</Name>
    <Address>高雄市茄萣區白雲里公園路</Address>
    <Administration>高雄市政府工務局養工處</Administration>
    <Latitude>22.90927695</Latitude>
    <Longitude>120.1854483</Longitude>
    <Grade>特優級</Grade>
    <Type>男廁</Type>
    <Type2>公園</Type2>
  </Data>
  <Data>
    <Country>高雄市</Country>
    <City>仁武區</City>
    <Village>仁武里</Village>
    <Number>1001206006-T-00228</Number>
    <Name>仁武高中</Name>
    <Address></Address>
    <Administration>仁武高中</Administration>
    <Latitude>23.59419433</Latitude>
    <Longitude>120.7067871</Longitude>
    <Grade>特優級</Grade>
    <Type>女廁</Type>
    <Type2>各級機關學校</Type2>
  </Data>
  <Data>
    <Country>高雄市</Country>
    <City>林園區</City>
    <Village>西溪里</Village>
    <Number>1001202009-D-00003</Number>
    <Name>林園海洋濕地公園無障礙廁所</Name>
    <Address></Address>
    <Administration>高雄市政府工務局養護工程處</Administration>
    <Latitude>22.49108256</Latitude>
    <Longitude>120.3855389</Longitude>
    <Grade>特優級</Grade>
    <Type>無障礙廁</Type>
    <Type2>公園</Type2>
  </Data>
  <Data>
    <Country>高雄市</Country>
    <City>林園區</City>
    <Village>西溪里</Village>
    <Number>1001202009-D-00002</Number>
    <Name>林園海洋濕地公園女廁</Name>
    <Address></Address>
    <Administration>高雄市政府工務局養護工程處</Administration>
    <Latitude>22.49105778</Latitude>
    <Longitude>120.385555</Longitude>
    <Grade>不合格</Grade>
    <Type>女廁</Type>
    <Type2>公園</Type2>
  </Data>
  <Data>
    <Country>高雄市</Country>
    <City>林園區</City>
    <Village>西溪里</Village>
    <Number>1001202009-D-00001</Number>
    <Name>林園海洋濕地公園男廁</Name>
    <Address>高雄市林園區12號公園</Address>
    <Administration>高雄市政府工務局養護工程處</Administration>
    <Latitude>22.49141464</Latitude>
    <Longitude>120.3855979</Longitude>
    <Grade>特優級</Grade>
    <Type>男廁</Type>
    <Type2>公園</Type2>
  </Data>
  <Data>
    <Country>高雄市</Country>
    <City>三民區</City>
    <Village>寶興里</Village>
    <Number>6400500019-O-00001</Number>
    <Name>肯得基大順2路身障廁</Name>
    <Address>高雄市三民區寶興里大順二路二四六號</Address>
    <Administration>肯得基</Administration>
    <Latitude>22.64436911</Latitude>
    <Longitude>120.3267374</Longitude>
    <Grade>特優級</Grade>
    <Type>無障礙廁</Type>
    <Type2>餐廳</Type2>
  </Data>
  <Data>
    <Country>高雄市</Country>
    <City>左營區</City>
    <Village>福山里</Village>
    <Number>6400300044-S-00012</Number>
    <Name>高雄榮總高齡大樓無障礙廁</Name>
    <Address>左營區大中一路386號</Address>
    <Administration>高雄榮總</Administration>
    <Latitude>22.67971541</Latitude>
    <Longitude>120.323227</Longitude>
    <Grade>優等級</Grade>
    <Type>無障礙廁</Type>
    <Type2>醫院</Type2>
  </Data>
  <Data>
    <Country>高雄市</Country>
    <City>左營區</City>
    <Village>福山里</Village>
    <Number>6400300044-S-00011</Number>
    <Name>高雄榮總高齡大樓女廁</Name>
    <Address>左營區大中一路386號</Address>
    <Administration>高雄榮總</Administration>
    <Latitude>22.67985377</Latitude>
    <Longitude>120.3230521</Longitude>
    <Grade>優等級</Grade>
    <Type>女廁</Type>
    <Type2>醫院</Type2>
  </Data>
  <Data>
    <Country>高雄市</Country>
    <City>左營區</City>
    <Village>福山里</Village>
    <Number>6400300044-S-00010</Number>
    <Name>高雄榮總高齡大樓男廁</Name>
    <Address>左營區大中一路386號</Address>
    <Administration>高雄榮總</Administration>
    <Latitude>22.67931353</Latitude>
    <Longitude>120.3234633</Longitude>
    <Grade>優等級</Grade>
    <Type>男廁</Type>
    <Type2>醫院</Type2>
  </Data>
  <Data>
    <Country>高雄市</Country>
    <City>左營區</City>
    <Village>福山里</Village>
    <Number>6400300044-S-00009</Number>
    <Name>高雄榮總急診大樓無障礙廁</Name>
    <Address>左營區大中一路386號</Address>
    <Administration>高雄榮總</Administration>
    <Latitude>22.67857944</Latitude>
    <Longitude>120.3232419</Longitude>
    <Grade>優等級</Grade>
    <Type>無障礙廁</Type>
    <Type2>醫院</Type2>
  </Data>
  <Data>
    <Country>高雄市</Country>
    <City>左營區</City>
    <Village>福山里</Village>
    <Number>6400300044-S-00008</Number>
    <Name>高雄榮總急診大樓女廁</Name>
    <Address>左營區大中一路386號</Address>
    <Administration>高雄榮總</Administration>
    <Latitude>22.67843804</Latitude>
    <Longitude>120.3234494</Longitude>
    <Grade>優等級</Grade>
    <Type>女廁</Type>
    <Type2>醫院</Type2>
  </Data>
  <Data>
    <Country>高雄市</Country>
    <City>左營區</City>
    <Village>福山里</Village>
    <Number>6400300044-S-00007</Number>
    <Name>高雄榮總急診大樓男廁</Name>
    <Address>左營區大中一路386號</Address>
    <Administration>高雄榮總</Administration>
    <Latitude>22.67898531</Latitude>
    <Longitude>120.3234243</Longitude>
    <Grade>優等級</Grade>
    <Type>男廁</Type>
    <Type2>醫院</Type2>
  </Data>
  <Data>
    <Country>高雄市</Country>
    <City>左營區</City>
    <Village>福山里</Village>
    <Number>6400300044-S-00006</Number>
    <Name>高雄榮總門診大樓無障礙廁</Name>
    <Address>左營區大中一路386號</Address>
    <Administration>高雄榮總</Administration>
    <Latitude>22.67858544</Latitude>
    <Longitude>120.3230354</Longitude>
    <Grade>優等級</Grade>
    <Type>無障礙廁</Type>
    <Type2>醫院</Type2>
  </Data>
  <Data>
    <Country>高雄市</Country>
    <City>左營區</City>
    <Village>福山里</Village>
    <Number>6400300044-S-00005</Number>
    <Name>高雄榮總門診大樓女廁</Name>
    <Address>左營區大中一路386號</Address>
    <Administration>高雄榮總</Administration>
    <Latitude>22.6795679</Latitude>
    <Longitude>120.323201</Longitude>
    <Grade>優等級</Grade>
    <Type>女廁</Type>
    <Type2>醫院</Type2>
  </Data>
  <Data>
    <Country>高雄市</Country>
    <City>左營區</City>
    <Village>福山里</Village>
    <Number>6400300044-S-00004</Number>
    <Name>高雄榮總門診大樓男廁</Name>
    <Address>左營區大中一路386號</Address>
    <Administration>高雄榮總</Administration>
    <Latitude>22.67877743</Latitude>
    <Longitude>120.3231883</Longitude>
    <Grade>優等級</Grade>
    <Type>男廁</Type>
    <Type2>醫院</Type2>
  </Data>
  <Data>
    <Country>高雄市</Country>
    <City>左營區</City>
    <Village>福山里</Village>
    <Number>6400300044-S-00003</Number>
    <Name>高雄榮總醫療大樓無障礙廁</Name>
    <Address>左營區大中一路386號</Address>
    <Administration>高雄榮總</Administration>
    <Latitude>22.67872793</Latitude>
    <Longitude>120.3233814</Longitude>
    <Grade>優等級</Grade>
    <Type>無障礙廁</Type>
    <Type2>醫院</Type2>
  </Data>
  <Data>
    <Country>高雄市</Country>
    <City>左營區</City>
    <Village>福山里</Village>
    <Number>6400300044-S-00002</Number>
    <Name>高雄榮總醫療大樓女廁</Name>
    <Address>左營區大中一路386號</Address>
    <Administration>高雄榮總</Administration>
    <Latitude>22.67863884</Latitude>
    <Longitude>120.3230917</Longitude>
    <Grade>優等級</Grade>
    <Type>女廁</Type>
    <Type2>醫院</Type2>
  </Data>
  <Data>
    <Country>高雄市</Country>
    <City>左營區</City>
    <Village>福山里</Village>
    <Number>6400300044-S-00001</Number>
    <Name>高雄榮總醫療大樓男廁</Name>
    <Address>左營區大中一路386號</Address>
    <Administration>高雄榮總</Administration>
    <Latitude>22.67844675</Latitude>
    <Longitude>120.3229333</Longitude>
    <Grade>優等級</Grade>
    <Type>男廁</Type>
    <Type2>醫院</Type2>
  </Data>
  <Data>
    <Country>高雄市</Country>
    <City>左營區</City>
    <Village>尾北里</Village>
    <Number>6400300009-B-00016</Number>
    <Name>蓮池潭風景區產物館女廁</Name>
    <Address>高雄市左營區翠華路1435號</Address>
    <Administration>高雄市政府農業局</Administration>
    <Latitude>22.67940108</Latitude>
    <Longitude>120.2973962</Longitude>
    <Grade>優等級</Grade>
    <Type>女廁</Type>
    <Type2>觀光地區及風景區</Type2>
  </Data>
  <Data>
    <Country>高雄市</Country>
    <City>左營區</City>
    <Village>尾北里</Village>
    <Number>6400300009-B-00015</Number>
    <Name>蓮池潭風景區產物館男廁</Name>
    <Address>高雄市左營區翠華路1435號</Address>
    <Administration>高雄市政府農業局</Administration>
    <Latitude>22.67940108</Latitude>
    <Longitude>120.2974069</Longitude>
    <Grade>優等級</Grade>
    <Type>男廁</Type>
    <Type2>觀光地區及風景區</Type2>
  </Data>
  <Data>
    <Country>高雄市</Country>
    <City>鹽埕區</City>
    <Village>港都里</Village>
    <Number>6400100014-E-00001</Number>
    <Name>崛江商場公廁</Name>
    <Address>高雄市鹽埕區港都里必忠街二二六號</Address>
    <Administration>港都里</Administration>
    <Latitude>22.62330295</Latitude>
    <Longitude>120.2811366</Longitude>
    <Grade>優等級</Grade>
    <Type>混合廁</Type>
    <Type2>市場</Type2>
  </Data>
  <Data>
    <Country>臺南市</Country>
    <City>將軍區</City>
    <Village>平沙里</Village>
    <Number>1001116016-J-01597</Number>
    <Name>將軍漁港船老大漁村無障礙廁</Name>
    <Address>臺南市將軍區平沙里平沙157號</Address>
    <Administration>將軍漁港所</Administration>
    <Latitude>23.21145368</Latitude>
    <Longitude>120.0885175</Longitude>
    <Grade>特優級</Grade>
    <Type>無障礙廁</Type>
    <Type2>港區</Type2>
  </Data>
  <Data>
    <Country>臺南市</Country>
    <City>將軍區</City>
    <Village>平沙里</Village>
    <Number>1001116016-J-01596</Number>
    <Name>將軍漁港船老大漁村女廁</Name>
    <Address>臺南市將軍區平沙里平沙157號</Address>
    <Administration>將軍漁港所</Administration>
    <Latitude>23.21150002</Latitude>
    <Longitude>120.0884854</Longitude>
    <Grade>特優級</Grade>
    <Type>女廁</Type>
    <Type2>港區</Type2>
  </Data>
  <Data>
    <Country>臺南市</Country>
    <City>將軍區</City>
    <Village>平沙里</Village>
    <Number>1001116016-J-01595</Number>
    <Name>將軍漁港船老大漁村男廁</Name>
    <Address>臺南市將軍區平沙里平沙157號</Address>
    <Administration>將軍漁港所</Administration>
    <Latitude>23.21152467</Latitude>
    <Longitude>120.0884693</Longitude>
    <Grade>特優級</Grade>
    <Type>男廁</Type>
    <Type2>港區</Type2>
  </Data>
  <Data>
    <Country>臺南市</Country>
    <City>將軍區</City>
    <Village>將貴里</Village>
    <Number>1001116011-X-00002</Number>
    <Name>將軍區將庄金興宮女廁</Name>
    <Address>臺南市將軍區將貴里將貴54之1號</Address>
    <Administration>將庄金興宮</Administration>
    <Latitude>23.21521734</Latitude>
    <Longitude>120.1373123</Longitude>
    <Grade>特優級</Grade>
    <Type>女廁</Type>
    <Type2>寺廟教堂等宗教活動場所</Type2>
  </Data>
  <Data>
    <Country>臺南市</Country>
    <City>將軍區</City>
    <Village>將貴里</Village>
    <Number>1001116011-X-00001</Number>
    <Name>將軍區將庄金興宮男廁</Name>
    <Address>臺南市將軍區將貴里將貴54之1號</Address>
    <Administration>將庄金興宮</Administration>
    <Latitude>23.21521241</Latitude>
    <Longitude>120.1373016</Longitude>
    <Grade>特優級</Grade>
    <Type>男廁</Type>
    <Type2>寺廟教堂等宗教活動場所</Type2>
  </Data>
  <Data>
    <Country>臺南市</Country>
    <City>將軍區</City>
    <Village>將富里</Village>
    <Number>1001116010-B-00002</Number>
    <Name>將軍區農會農村旅遊服務中心女廁</Name>
    <Address>台南市將軍區將富里將富48號</Address>
    <Administration>將軍區農會</Administration>
    <Latitude>23.21604066</Latitude>
    <Longitude>120.1355313</Longitude>
    <Grade>特優級</Grade>
    <Type>女廁</Type>
    <Type2>觀光地區及風景區</Type2>
  </Data>
  <Data>
    <Country>臺南市</Country>
    <City>將軍區</City>
    <Village>將富里</Village>
    <Number>1001116010-B-00001</Number>
    <Name>將軍區農會農村旅遊服務中心男廁</Name>
    <Address>台南市將軍區將富里將富48號</Address>
    <Administration>將軍區農會</Administration>
    <Latitude>23.21605348</Latitude>
    <Longitude>120.1355259</Longitude>
    <Grade>特優級</Grade>
    <Type>男廁</Type>
    <Type2>觀光地區及風景區</Type2>
  </Data>
  <Data>
    <Country>臺南市</Country>
    <City>將軍區</City>
    <Village>忠興里</Village>
    <Number>1001116004-C-01413</Number>
    <Name>中油將軍加油站無障礙廁</Name>
    <Address>臺南市將軍區忠興里忠興162之1號</Address>
    <Administration>中油台南營業處</Administration>
    <Latitude>23.20451177</Latitude>
    <Longitude>120.1591938</Longitude>
    <Grade>特優級</Grade>
    <Type>無障礙廁</Type>
    <Type2>加油站</Type2>
  </Data>
  <Data>
    <Country>臺中市</Country>
    <City>和平區</City>
    <Village>梨山里</Village>
    <Number>1000621007-V-00006</Number>
    <Name>梨山文物陳列館(館內)-殘廁</Name>
    <Address>臺中市和平區福壽路14號</Address>
    <Administration>參山國家風景區管理處</Administration>
    <Latitude>24.25239757</Latitude>
    <Longitude>121.2564383</Longitude>
    <Grade>特優級</Grade>
    <Type>無障礙廁</Type>
    <Type2>文化育樂活動場所</Type2>
  </Data>
  <Data>
    <Country>臺中市</Country>
    <City>和平區</City>
    <Village>梨山里</Village>
    <Number>1000621007-V-00005</Number>
    <Name>梨山文物陳列館(館內)-女廁</Name>
    <Address>臺中市和平區福壽路14號</Address>
    <Administration>參山國家風景區管理處</Administration>
    <Latitude>24.25242496</Latitude>
    <Longitude>121.2564372</Longitude>
    <Grade>特優級</Grade>
    <Type>女廁</Type>
    <Type2>文化育樂活動場所</Type2>
  </Data>
  <Data>
    <Country>臺中市</Country>
    <City>和平區</City>
    <Village>梨山里</Village>
    <Number>1000621007-V-00004</Number>
    <Name>梨山文物陳列館(館內)-男廁</Name>
    <Address>臺中市和平區福壽路14號</Address>
    <Administration>參山國家風景區管理處</Administration>
    <Latitude>24.25243963</Latitude>
    <Longitude>121.256456</Longitude>
    <Grade>特優級</Grade>
    <Type>男廁</Type>
    <Type2>文化育樂活動場所</Type2>
  </Data>
  <Data>
    <Country>臺中市</Country>
    <City>和平區</City>
    <Village>梨山里</Village>
    <Number>1000621007-V-00003</Number>
    <Name>梨山文物陳列館-殘廁</Name>
    <Address>臺中市和平區福壽路14號</Address>
    <Administration>參山國家風景區管理處</Administration>
    <Latitude>24.25244746</Latitude>
    <Longitude>121.2564543</Longitude>
    <Grade>特優級</Grade>
    <Type>無障礙廁</Type>
    <Type2>文化育樂活動場所</Type2>
  </Data>
  <Data>
    <Country>臺中市</Country>
    <City>和平區</City>
    <Village>梨山里</Village>
    <Number>1000621007-V-00002</Number>
    <Name>梨山文物陳列館-女廁</Name>
    <Address>臺中市和平區福壽路14號</Address>
    <Administration>參山國家風景區管理處</Administration>
    <Latitude>24.2524367</Latitude>
    <Longitude>121.2564436</Longitude>
    <Grade>特優級</Grade>
    <Type>女廁</Type>
    <Type2>文化育樂活動場所</Type2>
  </Data>
  <Data>
    <Country>臺中市</Country>
    <City>和平區</City>
    <Village>梨山里</Village>
    <Number>1000621007-V-00001</Number>
    <Name>梨山文物陳列館-男廁</Name>
    <Address>臺中市和平區福壽路14號</Address>
    <Administration>參山國家風景區管理處</Administration>
    <Latitude>24.25242203</Latitude>
    <Longitude>121.2564275</Longitude>
    <Grade>優等級</Grade>
    <Type>男廁</Type>
    <Type2>文化育樂活動場所</Type2>
  </Data>
  <Data>
    <Country>臺中市</Country>
    <City>和平區</City>
    <Village>梨山里</Village>
    <Number>1000621007-B-00094</Number>
    <Name>梨山遊客中心-女廁</Name>
    <Address>臺中市和平區梨山里中正路95號</Address>
    <Administration>參山國家風景區管理處</Administration>
    <Latitude>24.25473055</Latitude>
    <Longitude>121.2512401</Longitude>
    <Grade>特優級</Grade>
    <Type>女廁</Type>
    <Type2>觀光地區及風景區</Type2>
  </Data>
  <Data>
    <Country>臺中市</Country>
    <City>和平區</City>
    <Village>梨山里</Village>
    <Number>1000621007-B-00093</Number>
    <Name>梨山遊客中心-男廁</Name>
    <Address>臺中市和平區梨山里中正路95號</Address>
    <Administration>參山國家風景區管理處</Administration>
    <Latitude>24.25473055</Latitude>
    <Longitude>121.2512401</Longitude>
    <Grade>特優級</Grade>
    <Type>男廁</Type>
    <Type2>觀光地區及風景區</Type2>
  </Data>
  <Data>
    <Country>臺中市</Country>
    <City>后里區</City>
    <Village>月眉里</Village>
    <Number>1000607018-A-00052</Number>
    <Name>泰安服務區(南下，接高速公路口)-親子廁所</Name>
    <Address>臺中市后里區月眉里安眉路113號</Address>
    <Administration>交通部台灣區國道高速公路局泰安服務區</Administration>
    <Latitude>24.330278</Latitude>
    <Longitude>120.711667</Longitude>
    <Grade>不合格</Grade>
    <Type>親子廁</Type>
    <Type2>公路車站服務區及休息站</Type2>
  </Data>
  <Data>
    <Country>臺中市</Country>
    <City>后里區</City>
    <Village>月眉里</Village>
    <Number>1000607018-A-00051</Number>
    <Name>泰安服務區(南下，大貨車)-無障礙廁所女</Name>
    <Address>臺中市后里區月眉里安眉路113號</Address>
    <Administration>交通部台灣區國道高速公路局泰安服務區</Administration>
    <Latitude>24.330278</Latitude>
    <Longitude>120.711667</Longitude>
    <Grade>不合格</Grade>
    <Type>無障礙廁</Type>
    <Type2>公路車站服務區及休息站</Type2>
  </Data>
  <Data>
    <Country>臺中市</Country>
    <City>后里區</City>
    <Village>月眉里</Village>
    <Number>1000607018-A-00050</Number>
    <Name>泰安服務區(北上.大貨車) 友善廁所</Name>
    <Address>臺中市后里區月眉里雲頭路3之2號</Address>
    <Administration>交通部台灣區國道高速公路局泰安服務區</Administration>
    <Latitude>24.328718</Latitude>
    <Longitude>120.716035</Longitude>
    <Grade>特優級</Grade>
    <Type>混合廁</Type>
    <Type2>公路車站服務區及休息站</Type2>
  </Data>
  <Data>
    <Country>臺中市</Country>
    <City>后里區</City>
    <Village>月眉里</Village>
    <Number>1000607018-A-00049</Number>
    <Name>泰安服務區(北上，大貨車)-無障礙廁所 女</Name>
    <Address>臺中市后里區月眉里雲頭路3之2號</Address>
    <Administration>交通部台灣區國道高速公路局泰安服務區</Administration>
    <Latitude>24.328718</Latitude>
    <Longitude>120.716035</Longitude>
    <Grade>特優級</Grade>
    <Type>無障礙廁</Type>
    <Type2>公路車站服務區及休息站</Type2>
  </Data>
  <Data>
    <Country>臺中市</Country>
    <City>后里區</City>
    <Village>月眉里</Village>
    <Number>1000607018-A-00048</Number>
    <Name>泰安服務區(北上.大貨車) 親子廁所</Name>
    <Address>臺中市后里區月眉里雲頭路3之2號</Address>
    <Administration>交通部台灣區國道高速公路局泰安服務區</Administration>
    <Latitude>24.328718</Latitude>
    <Longitude>120.716035</Longitude>
    <Grade>特優級</Grade>
    <Type>親子廁</Type>
    <Type2>公路車站服務區及休息站</Type2>
  </Data>
  <Data>
    <Country>臺中市</Country>
    <City>豐原區</City>
    <Village>下街里</Village>
    <Number>1000601005-S-00004</Number>
    <Name>惠盛醫院3F男女混合廁</Name>
    <Address>臺中市豐原區中正路２６８號</Address>
    <Administration>惠盛醫院</Administration>
    <Latitude>24.25166392</Latitude>
    <Longitude>120.7183871</Longitude>
    <Grade>特優級</Grade>
    <Type>混合廁</Type>
    <Type2>醫院</Type2>
  </Data>
  <Data>
    <Country>臺中市</Country>
    <City>豐原區</City>
    <Village>下街里</Village>
    <Number>1000601005-S-00003</Number>
    <Name>惠盛醫院2F男女混合廁</Name>
    <Address>臺中市豐原區中正路２６８號</Address>
    <Administration>惠盛醫院</Administration>
    <Latitude>24.25165414</Latitude>
    <Longitude>120.7184032</Longitude>
    <Grade>特優級</Grade>
    <Type>混合廁</Type>
    <Type2>醫院</Type2>
  </Data>
  <Data>
    <Country>臺中市</Country>
    <City>豐原區</City>
    <Village>下街里</Village>
    <Number>1000601005-S-00002</Number>
    <Name>惠盛醫院1F殘障廁所</Name>
    <Address>臺中市豐原區中正路２６８號</Address>
    <Administration>惠盛醫院</Administration>
    <Latitude>24.25165414</Latitude>
    <Longitude>120.7183603</Longitude>
    <Grade>特優級</Grade>
    <Type>無障礙廁</Type>
    <Type2>醫院</Type2>
  </Data>
  <Data>
    <Country>臺中市</Country>
    <City>豐原區</City>
    <Village>下街里</Village>
    <Number>1000601005-S-00001</Number>
    <Name>惠盛醫院1F男女混合廁</Name>
    <Address>臺中市豐原區中正路２６８號</Address>
    <Administration>惠盛醫院</Administration>
    <Latitude>24.25166881</Latitude>
    <Longitude>120.7183871</Longitude>
    <Grade>特優級</Grade>
    <Type>混合廁</Type>
    <Type2>醫院</Type2>
  </Data>
  <Data>
    <Country>臺中市</Country>
    <City>北屯區</City>
    <Village>仁和里</Village>
    <Number>1001908017-O-00003</Number>
    <Name>拾七石頭火鍋昌平店2F 男廁</Name>
    <Address>臺中市北屯區崇德路三段201號</Address>
    <Administration>輕井澤拾七</Administration>
    <Latitude>24.18789463</Latitude>
    <Longitude>120.6861019</Longitude>
    <Grade>特優級</Grade>
    <Type>男廁</Type>
    <Type2>餐廳</Type2>
  </Data>
  <Data>
    <Country>臺中市</Country>
    <City>北屯區</City>
    <Village>仁和里</Village>
    <Number>1001908017-O-00002</Number>
    <Name>拾七石頭火鍋昌平店2F 女廁</Name>
    <Address>臺中市北屯區崇德路三段201號</Address>
    <Administration>輕井澤拾七</Administration>
    <Latitude>24.18780753</Latitude>
    <Longitude>120.6860206</Longitude>
    <Grade>特優級</Grade>
    <Type>女廁</Type>
    <Type2>餐廳</Type2>
  </Data>
  <Data>
    <Country>臺中市</Country>
    <City>北屯區</City>
    <Village>仁和里</Village>
    <Number>1001908017-O-00001</Number>
    <Name>拾七石頭火鍋昌平店1F 殘障廁所</Name>
    <Address>臺中市北屯區崇德路三段201號</Address>
    <Administration>輕井澤拾七</Administration>
    <Latitude>24.18780019</Latitude>
    <Longitude>120.6860193</Longitude>
    <Grade>特優級</Grade>
    <Type>無障礙廁</Type>
    <Type2>餐廳</Type2>
  </Data>
  <Data>
    <Country>臺中市</Country>
    <City>北屯區</City>
    <Village>平田里</Village>
    <Number>1001908004-V-00006</Number>
    <Name>臺中市立大墩文化中心兒童館-3F親子廁所</Name>
    <Address>臺中市北屯區興安路一段162號</Address>
    <Administration>臺中市文化局</Administration>
    <Latitude>24.17579156</Latitude>
    <Longitude>120.7007275</Longitude>
    <Grade>不合格</Grade>
    <Type>混合廁</Type>
    <Type2>文化育樂活動場所</Type2>
  </Data>
  <Data>
    <Country>臺中市</Country>
    <City>北屯區</City>
    <Village>平田里</Village>
    <Number>1001908004-V-00005</Number>
    <Name>臺中市立大墩文化中心兒童館-2F親子廁所</Name>
    <Address>臺中市北屯區興安路一段162號</Address>
    <Administration>臺中市文化局</Administration>
    <Latitude>24.18283861</Latitude>
    <Longitude>120.7153187</Longitude>
    <Grade>不合格</Grade>
    <Type>親子廁</Type>
    <Type2>文化育樂活動場所</Type2>
  </Data>
  <Data>
    <Country>臺中市</Country>
    <City>南屯區</City>
    <Village>大業里</Village>
    <Number>1001907022-C-00003</Number>
    <Name>中油公益路站(殘障)</Name>
    <Address>臺中市南屯區公益路二段2號</Address>
    <Administration>臺灣中油股份有限公司台中營業處</Administration>
    <Latitude>24.15108073</Latitude>
    <Longitude>120.6527352</Longitude>
    <Grade>不合格</Grade>
    <Type>無障礙廁</Type>
    <Type2>加油站</Type2>
  </Data>
  <Data>
    <Country>臺中市</Country>
    <City>南屯區</City>
    <Village>鎮平里</Village>
    <Number>1001907015-C-00006</Number>
    <Name>鎮安加油站-女廁</Name>
    <Address>台中市南屯區環中路鎮平里四段968號</Address>
    <Administration>鎮安加油站</Administration>
    <Latitude>24.12934566</Latitude>
    <Longitude>120.6280031</Longitude>
    <Grade>不合格</Grade>
    <Type>女廁</Type>
    <Type2>加油站</Type2>
  </Data>
  <Data>
    <Country>臺中市</Country>
    <City>南屯區</City>
    <Village>文山里</Village>
    <Number>1001907007-C-00003</Number>
    <Name>統一精工向上加油站-男廁</Name>
    <Address>台中市南屯區文山里向上路5段289號</Address>
    <Administration>統一精工向上加油站</Administration>
    <Latitude>24.15444444</Latitude>
    <Longitude>120.5997648</Longitude>
    <Grade>不合格</Grade>
    <Type>男廁</Type>
    <Type2>加油站</Type2>
  </Data>
  <Data>
    <Country>臺中市</Country>
    <City>南屯區</City>
    <Village>文山里</Village>
    <Number>1001907007-C-00002</Number>
    <Name>統一精工向上加油站-女廁</Name>
    <Address>台中市南屯區文山里向上路5段289號</Address>
    <Administration>統一精工向上加油站</Administration>
    <Latitude>24.15417034</Latitude>
    <Longitude>120.6000652</Longitude>
    <Grade>不合格</Grade>
    <Type>女廁</Type>
    <Type2>加油站</Type2>
  </Data>
  <Data>
    <Country>臺中市</Country>
    <City>南屯區</City>
    <Village>文山里</Village>
    <Number>1001907007-C-00001</Number>
    <Name>統一精工向上加油站-殘障廁所</Name>
    <Address>台中市南屯區文山里向上路5段289號</Address>
    <Administration>統一精工向上加油站</Administration>
    <Latitude>24.15134897</Latitude>
    <Longitude>120.6103799</Longitude>
    <Grade>不合格</Grade>
    <Type>無障礙廁</Type>
    <Type2>加油站</Type2>
  </Data>
  <Data>
    <Country>臺中市</Country>
    <City>南屯區</City>
    <Village>春社里</Village>
    <Number>1001907005-C-00012</Number>
    <Name>台糖忠勇路加油站(殘障)</Name>
    <Address>臺中市南屯區忠勇路16-5號</Address>
    <Administration>台糖忠勇路加油站</Administration>
    <Latitude>24.13597754</Latitude>
    <Longitude>120.6124592</Longitude>
    <Grade>特優級</Grade>
    <Type>無障礙廁</Type>
    <Type2>加油站</Type2>
  </Data>
  <Data>
    <Country>臺中市</Country>
    <City>南屯區</City>
    <Village>春社里</Village>
    <Number>1001907005-C-00011</Number>
    <Name>台糖成功加油站(殘障)</Name>
    <Address>臺中市南屯區忠勇路1號</Address>
    <Administration>台糖成功加油站</Administration>
    <Latitude>24.12718991</Latitude>
    <Longitude>120.6074595</Longitude>
    <Grade>特優級</Grade>
    <Type>無障礙廁</Type>
    <Type2>加油站</Type2>
  </Data>
  <Data>
    <Country>臺中市</Country>
    <City>南屯區</City>
    <Village>楓樹里</Village>
    <Number>1001907003-C-00002</Number>
    <Name>黎明路加油站(女廁)</Name>
    <Address>台中市南屯區楓樹里黎明路一段92號</Address>
    <Administration>黎明路加油站</Administration>
    <Latitude>24.11442172</Latitude>
    <Longitude>120.6261674</Longitude>
    <Grade>不合格</Grade>
    <Type>女廁</Type>
    <Type2>加油站</Type2>
  </Data>
  <Data>
    <Country>臺中市</Country>
    <City>南屯區</City>
    <Village>楓樹里</Village>
    <Number>1001907003-C-00001</Number>
    <Name>黎明路加油站(男側)</Name>
    <Address>台中市南屯區楓樹里黎明路一段92號</Address>
    <Administration>黎明路加油站</Administration>
    <Latitude>24.11429931</Latitude>
    <Longitude>120.6261299</Longitude>
    <Grade>不合格</Grade>
    <Type>男廁</Type>
    <Type2>加油站</Type2>
  </Data>
  <Data>
    <Country>臺中市</Country>
    <City>西屯區</City>
    <Village>上安里</Village>
    <Number>1001906027-M-00001</Number>
    <Name>寶雅 河南店 男女混廁</Name>
    <Address>台中市西屯區河南路二段466號</Address>
    <Administration>寶雅國際股份有限公司</Administration>
    <Latitude>24.17093254</Latitude>
    <Longitude>120.6434419</Longitude>
    <Grade>優等級</Grade>
    <Type>混合廁</Type>
    <Type2>量販店</Type2>
  </Data>
  <Data>
    <Country>臺中市</Country>
    <City>西屯區</City>
    <Village>上安里</Village>
    <Number>1001906027-L-00003</Number>
    <Name>全家便利商店 上安店 男廁</Name>
    <Address>台中市西屯區上安里上安路136號</Address>
    <Administration>全家便利商店股份有限公司</Administration>
    <Latitude>24.17151371</Latitude>
    <Longitude>120.6399457</Longitude>
    <Grade>優等級</Grade>
    <Type>男廁</Type>
    <Type2>超市</Type2>
  </Data>
  <Data>
    <Country>臺中市</Country>
    <City>西屯區</City>
    <Village>上安里</Village>
    <Number>1001906027-L-00002</Number>
    <Name>全家便利商店 上安店 女廁</Name>
    <Address>台中市西屯區上安里上安路136號</Address>
    <Administration>全家便利商店股份有限公司</Administration>
    <Latitude>24.17151591</Latitude>
    <Longitude>120.6399376</Longitude>
    <Grade>優等級</Grade>
    <Type>女廁</Type>
    <Type2>超市</Type2>
  </Data>
  <Data>
    <Country>臺中市</Country>
    <City>西屯區</City>
    <Village>上安里</Village>
    <Number>1001906027-L-00001</Number>
    <Name>統一超商 尚仁店 男女混廁</Name>
    <Address>台中市西屯區上安里尚仁街139號</Address>
